$GPGGA,041437.919,0043.999,S,01134.528,E,1,12,1.0,0.0,M,0.0,M,,*71
$GPGSA,A,3,01,02,03,04,05,06,07,08,09,10,11,12,1.0,1.0,1.0*30
$GPRMC,041437.919,A,0043.999,S,01134.528,E,194.4,340.0,271119,000.0,W*67
$GPGGA,041438.919,0043.948,S,01134.510,E,1,12,1.0,0.0,M,0.0,M,,*79
$GPGSA,A,3,01,02,03,04,05,06,07,08,09,10,11,12,1.0,1.0,1.0*30
$GPRMC,041438.919,A,0043.948,S,01134.510,E,194.4,340.0,271119,000.0,W*6F
$GPGGA,041439.919,0043.898,S,01134.491,E,1,12,1.0,0.0,M,0.0,M,,*7C
$GPGSA,A,3,01,02,03,04,05,06,07,08,09,10,11,12,1.0,1.0,1.0*30
$GPRMC,041439.919,A,0043.898,S,01134.491,E,194.4,340.0,271119,000.0,W*6A
$GPGGA,041440.919,0043.847,S,01134.473,E,1,12,1.0,0.0,M,0.0,M,,*7C
$GPGSA,A,3,01,02,03,04,05,06,07,08,09,10,11,12,1.0,1.0,1.0*30
$GPRMC,041440.919,A,0043.847,S,01134.473,E,194.4,340.0,271119,000.0,W*6A
$GPGGA,041441.919,0043.796,S,01134.454,E,1,12,1.0,0.0,M,0.0,M,,*7B
$GPGSA,A,3,01,02,03,04,05,06,07,08,09,10,11,12,1.0,1.0,1.0*30
$GPRMC,041441.919,A,0043.796,S,01134.454,E,194.4,340.0,271119,000.0,W*6D
$GPGGA,041442.919,0043.746,S,01134.436,E,1,12,1.0,0.0,M,0.0,M,,*71
$GPGSA,A,3,01,02,03,04,05,06,07,08,09,10,11,12,1.0,1.0,1.0*30
$GPRMC,041442.919,A,0043.746,S,01134.436,E,194.4,340.0,271119,000.0,W*67
$GPGGA,041443.919,0043.695,S,01134.417,E,1,12,1.0,0.0,M,0.0,M,,*7C
$GPGSA,A,3,01,02,03,04,05,06,07,08,09,10,11,12,1.0,1.0,1.0*30
$GPRMC,041443.919,A,0043.695,S,01134.417,E,194.4,340.0,271119,000.0,W*6A
$GPGGA,041444.919,0043.644,S,01134.399,E,1,12,1.0,0.0,M,0.0,M,,*76
$GPGSA,A,3,01,02,03,04,05,06,07,08,09,10,11,12,1.0,1.0,1.0*30
$GPRMC,041444.919,A,0043.644,S,01134.399,E,194.4,340.0,271119,000.0,W*60
$GPGGA,041445.919,0043.593,S,01134.380,E,1,12,1.0,0.0,M,0.0,M,,*76
$GPGSA,A,3,01,02,03,04,05,06,07,08,09,10,11,12,1.0,1.0,1.0*30
$GPRMC,041445.919,A,0043.593,S,01134.380,E,194.4,340.0,271119,000.0,W*60
$GPGGA,041446.919,0043.543,S,01134.362,E,1,12,1.0,0.0,M,0.0,M,,*74
$GPGSA,A,3,01,02,03,04,05,06,07,08,09,10,11,12,1.0,1.0,1.0*30
$GPRMC,041446.919,A,0043.543,S,01134.362,E,194.4,340.0,271119,000.0,W*62
$GPGGA,041447.919,0043.492,S,01134.344,E,1,12,1.0,0.0,M,0.0,M,,*7C
$GPGSA,A,3,01,02,03,04,05,06,07,08,09,10,11,12,1.0,1.0,1.0*30
$GPRMC,041447.919,A,0043.492,S,01134.344,E,194.4,340.0,271119,000.0,W*6A
$GPGGA,041448.919,0043.441,S,01134.325,E,1,12,1.0,0.0,M,0.0,M,,*7A
$GPGSA,A,3,01,02,03,04,05,06,07,08,09,10,11,12,1.0,1.0,1.0*30
$GPRMC,041448.919,A,0043.441,S,01134.325,E,194.4,340.0,271119,000.0,W*6C
$GPGGA,041449.919,0043.391,S,01134.307,E,1,12,1.0,0.0,M,0.0,M,,*71
$GPGSA,A,3,01,02,03,04,05,06,07,08,09,10,11,12,1.0,1.0,1.0*30
$GPRMC,041449.919,A,0043.391,S,01134.307,E,194.4,340.0,271119,000.0,W*67
$GPGGA,041450.919,0043.340,S,01134.288,E,1,12,1.0,0.0,M,0.0,M,,*73
$GPGSA,A,3,01,02,03,04,05,06,07,08,09,10,11,12,1.0,1.0,1.0*30
$GPRMC,041450.919,A,0043.340,S,01134.288,E,194.4,340.0,271119,000.0,W*65
$GPGGA,041451.919,0043.289,S,01134.270,E,1,12,1.0,0.0,M,0.0,M,,*71
$GPGSA,A,3,01,02,03,04,05,06,07,08,09,10,11,12,1.0,1.0,1.0*30
$GPRMC,041451.919,A,0043.289,S,01134.270,E,194.4,340.0,271119,000.0,W*67
$GPGGA,041452.919,0043.239,S,01134.251,E,1,12,1.0,0.0,M,0.0,M,,*7A
$GPGSA,A,3,01,02,03,04,05,06,07,08,09,10,11,12,1.0,1.0,1.0*30
$GPRMC,041452.919,A,0043.239,S,01134.251,E,194.4,340.0,271119,000.0,W*6C
$GPGGA,041453.919,0043.188,S,01134.233,E,1,12,1.0,0.0,M,0.0,M,,*76
$GPGSA,A,3,01,02,03,04,05,06,07,08,09,10,11,12,1.0,1.0,1.0*30
$GPRMC,041453.919,A,0043.188,S,01134.233,E,194.4,340.0,271119,000.0,W*60
$GPGGA,041454.919,0043.137,S,01134.214,E,1,12,1.0,0.0,M,0.0,M,,*70
$GPGSA,A,3,01,02,03,04,05,06,07,08,09,10,11,12,1.0,1.0,1.0*30
$GPRMC,041454.919,A,0043.137,S,01134.214,E,194.4,340.0,271119,000.0,W*66
$GPGGA,041455.919,0043.086,S,01134.196,E,1,12,1.0,0.0,M,0.0,M,,*73
$GPGSA,A,3,01,02,03,04,05,06,07,08,09,10,11,12,1.0,1.0,1.0*30
$GPRMC,041455.919,A,0043.086,S,01134.196,E,194.4,340.0,271119,000.0,W*65
$GPGGA,041456.919,0043.036,S,01134.177,E,1,12,1.0,0.0,M,0.0,M,,*74
$GPGSA,A,3,01,02,03,04,05,06,07,08,09,10,11,12,1.0,1.0,1.0*30
$GPRMC,041456.919,A,0043.036,S,01134.177,E,194.4,340.0,271119,000.0,W*62
$GPGGA,041457.919,0042.985,S,01134.159,E,1,12,1.0,0.0,M,0.0,M,,*79
$GPGSA,A,3,01,02,03,04,05,06,07,08,09,10,11,12,1.0,1.0,1.0*30
$GPRMC,041457.919,A,0042.985,S,01134.159,E,194.4,340.0,271119,000.0,W*6F
$GPGGA,041458.919,0042.934,S,01134.140,E,1,12,1.0,0.0,M,0.0,M,,*74
$GPGSA,A,3,01,02,03,04,05,06,07,08,09,10,11,12,1.0,1.0,1.0*30
$GPRMC,041458.919,A,0042.934,S,01134.140,E,194.4,340.0,271119,000.0,W*62
$GPGGA,041459.919,0042.884,S,01134.122,E,1,12,1.0,0.0,M,0.0,M,,*7B
$GPGSA,A,3,01,02,03,04,05,06,07,08,09,10,11,12,1.0,1.0,1.0*30
$GPRMC,041459.919,A,0042.884,S,01134.122,E,194.4,340.0,271119,000.0,W*6D
$GPGGA,041500.919,0042.833,S,01134.103,E,1,12,1.0,0.0,M,0.0,M,,*79
$GPGSA,A,3,01,02,03,04,05,06,07,08,09,10,11,12,1.0,1.0,1.0*30
$GPRMC,041500.919,A,0042.833,S,01134.103,E,194.4,340.0,271119,000.0,W*6F
$GPGGA,041501.919,0042.782,S,01134.085,E,1,12,1.0,0.0,M,0.0,M,,*72
$GPGSA,A,3,01,02,03,04,05,06,07,08,09,10,11,12,1.0,1.0,1.0*30
$GPRMC,041501.919,A,0042.782,S,01134.085,E,194.4,340.0,271119,000.0,W*64
$GPGGA,041502.919,0042.732,S,01134.066,E,1,12,1.0,0.0,M,0.0,M,,*77
$GPGSA,A,3,01,02,03,04,05,06,07,08,09,10,11,12,1.0,1.0,1.0*30
$GPRMC,041502.919,A,0042.732,S,01134.066,E,194.4,340.0,271119,000.0,W*61
$GPGGA,041503.919,0042.681,S,01134.048,E,1,12,1.0,0.0,M,0.0,M,,*73
$GPGSA,A,3,01,02,03,04,05,06,07,08,09,10,11,12,1.0,1.0,1.0*30
$GPRMC,041503.919,A,0042.681,S,01134.048,E,194.4,340.0,271119,000.0,W*65
$GPGGA,041504.919,0042.630,S,01134.030,E,1,12,1.0,0.0,M,0.0,M,,*71
$GPGSA,A,3,01,02,03,04,05,06,07,08,09,10,11,12,1.0,1.0,1.0*30
$GPRMC,041504.919,A,0042.630,S,01134.030,E,194.4,340.0,271119,000.0,W*67
$GPGGA,041505.919,0042.579,S,01134.011,E,1,12,1.0,0.0,M,0.0,M,,*7D
$GPGSA,A,3,01,02,03,04,05,06,07,08,09,10,11,12,1.0,1.0,1.0*30
$GPRMC,041505.919,A,0042.579,S,01134.011,E,194.4,340.0,271119,000.0,W*6B
$GPGGA,041506.919,0042.529,S,01133.993,E,1,12,1.0,0.0,M,0.0,M,,*7F
$GPGSA,A,3,01,02,03,04,05,06,07,08,09,10,11,12,1.0,1.0,1.0*30
$GPRMC,041506.919,A,0042.529,S,01133.993,E,194.4,340.0,271119,000.0,W*69
$GPGGA,041507.919,0042.478,S,01133.974,E,1,12,1.0,0.0,M,0.0,M,,*72
$GPGSA,A,3,01,02,03,04,05,06,07,08,09,10,11,12,1.0,1.0,1.0*30
$GPRMC,041507.919,A,0042.478,S,01133.974,E,194.4,340.0,271119,000.0,W*64
$GPGGA,041508.919,0042.427,S,01133.956,E,1,12,1.0,0.0,M,0.0,M,,*77
$GPGSA,A,3,01,02,03,04,05,06,07,08,09,10,11,12,1.0,1.0,1.0*30
$GPRMC,041508.919,A,0042.427,S,01133.956,E,194.4,340.0,271119,000.0,W*61
$GPGGA,041509.919,0042.377,S,01133.937,E,1,12,1.0,0.0,M,0.0,M,,*73
$GPGSA,A,3,01,02,03,04,05,06,07,08,09,10,11,12,1.0,1.0,1.0*30
$GPRMC,041509.919,A,0042.377,S,01133.937,E,194.4,340.0,271119,000.0,W*65
$GPGGA,041510.919,0042.326,S,01133.919,E,1,12,1.0,0.0,M,0.0,M,,*73
$GPGSA,A,3,01,02,03,04,05,06,07,08,09,10,11,12,1.0,1.0,1.0*30
$GPRMC,041510.919,A,0042.326,S,01133.919,E,194.4,340.0,271119,000.0,W*65
$GPGGA,041511.919,0042.275,S,01133.900,E,1,12,1.0,0.0,M,0.0,M,,*7D
$GPGSA,A,3,01,02,03,04,05,06,07,08,09,10,11,12,1.0,1.0,1.0*30
$GPRMC,041511.919,A,0042.275,S,01133.900,E,194.4,340.0,271119,000.0,W*6B
$GPGGA,041512.919,0042.225,S,01133.882,E,1,12,1.0,0.0,M,0.0,M,,*70
$GPGSA,A,3,01,02,03,04,05,06,07,08,09,10,11,12,1.0,1.0,1.0*30
$GPRMC,041512.919,A,0042.225,S,01133.882,E,194.4,340.0,271119,000.0,W*66
$GPGGA,041513.919,0042.174,S,01133.863,E,1,12,1.0,0.0,M,0.0,M,,*79
$GPGSA,A,3,01,02,03,04,05,06,07,08,09,10,11,12,1.0,1.0,1.0*30
$GPRMC,041513.919,A,0042.174,S,01133.863,E,194.4,340.0,271119,000.0,W*6F
$GPGGA,041514.919,0042.123,S,01133.845,E,1,12,1.0,0.0,M,0.0,M,,*78
$GPGSA,A,3,01,02,03,04,05,06,07,08,09,10,11,12,1.0,1.0,1.0*30
$GPRMC,041514.919,A,0042.123,S,01133.845,E,194.4,340.0,271119,000.0,W*6E
$GPGGA,041515.919,0042.072,S,01133.826,E,1,12,1.0,0.0,M,0.0,M,,*79
$GPGSA,A,3,01,02,03,04,05,06,07,08,09,10,11,12,1.0,1.0,1.0*30
$GPRMC,041515.919,A,0042.072,S,01133.826,E,194.4,340.0,271119,000.0,W*6F
$GPGGA,041516.919,0042.022,S,01133.808,E,1,12,1.0,0.0,M,0.0,M,,*73
$GPGSA,A,3,01,02,03,04,05,06,07,08,09,10,11,12,1.0,1.0,1.0*30
$GPRMC,041516.919,A,0042.022,S,01133.808,E,194.4,340.0,271119,000.0,W*65
$GPGGA,041517.919,0041.971,S,01133.789,E,1,12,1.0,0.0,M,0.0,M,,*78
$GPGSA,A,3,01,02,03,04,05,06,07,08,09,10,11,12,1.0,1.0,1.0*30
$GPRMC,041517.919,A,0041.971,S,01133.789,E,194.4,340.0,271119,000.0,W*6E
$GPGGA,041518.919,0041.920,S,01133.771,E,1,12,1.0,0.0,M,0.0,M,,*74
$GPGSA,A,3,01,02,03,04,05,06,07,08,09,10,11,12,1.0,1.0,1.0*30
$GPRMC,041518.919,A,0041.920,S,01133.771,E,194.4,340.0,271119,000.0,W*62
$GPGGA,041519.919,0041.870,S,01133.753,E,1,12,1.0,0.0,M,0.0,M,,*71
$GPGSA,A,3,01,02,03,04,05,06,07,08,09,10,11,12,1.0,1.0,1.0*30
$GPRMC,041519.919,A,0041.870,S,01133.753,E,194.4,340.0,271119,000.0,W*67
$GPGGA,041520.919,0041.819,S,01133.734,E,1,12,1.0,0.0,M,0.0,M,,*75
$GPGSA,A,3,01,02,03,04,05,06,07,08,09,10,11,12,1.0,1.0,1.0*30
$GPRMC,041520.919,A,0041.819,S,01133.734,E,194.4,340.0,271119,000.0,W*63
$GPGGA,041521.919,0041.768,S,01133.716,E,1,12,1.0,0.0,M,0.0,M,,*7D
$GPGSA,A,3,01,02,03,04,05,06,07,08,09,10,11,12,1.0,1.0,1.0*30
$GPRMC,041521.919,A,0041.768,S,01133.716,E,194.4,340.0,271119,000.0,W*6B
$GPGGA,041522.919,0041.718,S,01133.697,E,1,12,1.0,0.0,M,0.0,M,,*71
$GPGSA,A,3,01,02,03,04,05,06,07,08,09,10,11,12,1.0,1.0,1.0*30
$GPRMC,041522.919,A,0041.718,S,01133.697,E,194.4,340.0,271119,000.0,W*67
$GPGGA,041523.919,0041.667,S,01133.679,E,1,12,1.0,0.0,M,0.0,M,,*79
$GPGSA,A,3,01,02,03,04,05,06,07,08,09,10,11,12,1.0,1.0,1.0*30
$GPRMC,041523.919,A,0041.667,S,01133.679,E,194.4,340.0,271119,000.0,W*6F
$GPGGA,041524.919,0041.616,S,01133.660,E,1,12,1.0,0.0,M,0.0,M,,*70
$GPGSA,A,3,01,02,03,04,05,06,07,08,09,10,11,12,1.0,1.0,1.0*30
$GPRMC,041524.919,A,0041.616,S,01133.660,E,194.4,340.0,271119,000.0,W*66
$GPGGA,041525.919,0041.565,S,01133.642,E,1,12,1.0,0.0,M,0.0,M,,*76
$GPGSA,A,3,01,02,03,04,05,06,07,08,09,10,11,12,1.0,1.0,1.0*30
$GPRMC,041525.919,A,0041.565,S,01133.642,E,194.4,340.0,271119,000.0,W*60
$GPGGA,041526.919,0041.515,S,01133.623,E,1,12,1.0,0.0,M,0.0,M,,*75
$GPGSA,A,3,01,02,03,04,05,06,07,08,09,10,11,12,1.0,1.0,1.0*30
$GPRMC,041526.919,A,0041.515,S,01133.623,E,194.4,340.0,271119,000.0,W*63
$GPGGA,041527.919,0041.464,S,01133.605,E,1,12,1.0,0.0,M,0.0,M,,*77
$GPGSA,A,3,01,02,03,04,05,06,07,08,09,10,11,12,1.0,1.0,1.0*30
$GPRMC,041527.919,A,0041.464,S,01133.605,E,194.4,340.0,271119,000.0,W*61
$GPGGA,041528.919,0041.413,S,01133.586,E,1,12,1.0,0.0,M,0.0,M,,*70
$GPGSA,A,3,01,02,03,04,05,06,07,08,09,10,11,12,1.0,1.0,1.0*30
$GPRMC,041528.919,A,0041.413,S,01133.586,E,194.4,340.0,271119,000.0,W*66
$GPGGA,041529.919,0041.363,S,01133.568,E,1,12,1.0,0.0,M,0.0,M,,*71
$GPGSA,A,3,01,02,03,04,05,06,07,08,09,10,11,12,1.0,1.0,1.0*30
$GPRMC,041529.919,A,0041.363,S,01133.568,E,194.4,340.0,271119,000.0,W*67
$GPGGA,041530.919,0041.312,S,01133.549,E,1,12,1.0,0.0,M,0.0,M,,*7C
$GPGSA,A,3,01,02,03,04,05,06,07,08,09,10,11,12,1.0,1.0,1.0*30
$GPRMC,041530.919,A,0041.312,S,01133.549,E,194.4,340.0,271119,000.0,W*6A
$GPGGA,041531.919,0041.261,S,01133.531,E,1,12,1.0,0.0,M,0.0,M,,*77
$GPGSA,A,3,01,02,03,04,05,06,07,08,09,10,11,12,1.0,1.0,1.0*30
$GPRMC,041531.919,A,0041.261,S,01133.531,E,194.4,340.0,271119,000.0,W*61
$GPGGA,041532.919,0041.210,S,01133.512,E,1,12,1.0,0.0,M,0.0,M,,*73
$GPGSA,A,3,01,02,03,04,05,06,07,08,09,10,11,12,1.0,1.0,1.0*30
$GPRMC,041532.919,A,0041.210,S,01133.512,E,194.4,340.0,271119,000.0,W*65
$GPGGA,041533.919,0041.160,S,01133.494,E,1,12,1.0,0.0,M,0.0,M,,*79
$GPGSA,A,3,01,02,03,04,05,06,07,08,09,10,11,12,1.0,1.0,1.0*30
$GPRMC,041533.919,A,0041.160,S,01133.494,E,194.4,340.0,271119,000.0,W*6F
$GPGGA,041534.919,0041.109,S,01133.476,E,1,12,1.0,0.0,M,0.0,M,,*7D
$GPGSA,A,3,01,02,03,04,05,06,07,08,09,10,11,12,1.0,1.0,1.0*30
$GPRMC,041534.919,A,0041.109,S,01133.476,E,194.4,340.0,271119,000.0,W*6B
$GPGGA,041535.919,0041.058,S,01133.457,E,1,12,1.0,0.0,M,0.0,M,,*7A
$GPGSA,A,3,01,02,03,04,05,06,07,08,09,10,11,12,1.0,1.0,1.0*30
$GPRMC,041535.919,A,0041.058,S,01133.457,E,194.4,340.0,271119,000.0,W*6C
$GPGGA,041536.919,0041.008,S,01133.439,E,1,12,1.0,0.0,M,0.0,M,,*74
$GPGSA,A,3,01,02,03,04,05,06,07,08,09,10,11,12,1.0,1.0,1.0*30
$GPRMC,041536.919,A,0041.008,S,01133.439,E,194.4,340.0,271119,000.0,W*62
$GPGGA,041537.919,0040.957,S,01133.420,E,1,12,1.0,0.0,M,0.0,M,,*7F
$GPGSA,A,3,01,02,03,04,05,06,07,08,09,10,11,12,1.0,1.0,1.0*30
$GPRMC,041537.919,A,0040.957,S,01133.420,E,194.4,340.0,271119,000.0,W*69
$GPGGA,041538.919,0040.906,S,01133.402,E,1,12,1.0,0.0,M,0.0,M,,*74
$GPGSA,A,3,01,02,03,04,05,06,07,08,09,10,11,12,1.0,1.0,1.0*30
$GPRMC,041538.919,A,0040.906,S,01133.402,E,194.4,340.0,271119,000.0,W*62
$GPGGA,041539.919,0040.856,S,01133.383,E,1,12,1.0,0.0,M,0.0,M,,*7F
$GPGSA,A,3,01,02,03,04,05,06,07,08,09,10,11,12,1.0,1.0,1.0*30
$GPRMC,041539.919,A,0040.856,S,01133.383,E,194.4,340.0,271119,000.0,W*69
$GPGGA,041540.919,0040.805,S,01133.365,E,1,12,1.0,0.0,M,0.0,M,,*7F
$GPGSA,A,3,01,02,03,04,05,06,07,08,09,10,11,12,1.0,1.0,1.0*30
$GPRMC,041540.919,A,0040.805,S,01133.365,E,194.4,340.0,271119,000.0,W*69
$GPGGA,041541.919,0040.754,S,01133.346,E,1,12,1.0,0.0,M,0.0,M,,*74
$GPGSA,A,3,01,02,03,04,05,06,07,08,09,10,11,12,1.0,1.0,1.0*30
$GPRMC,041541.919,A,0040.754,S,01133.346,E,194.4,340.0,271119,000.0,W*62
$GPGGA,041542.919,0040.703,S,01133.328,E,1,12,1.0,0.0,M,0.0,M,,*7D
$GPGSA,A,3,01,02,03,04,05,06,07,08,09,10,11,12,1.0,1.0,1.0*30
$GPRMC,041542.919,A,0040.703,S,01133.328,E,194.4,340.0,271119,000.0,W*6B
$GPGGA,041543.919,0040.653,S,01133.309,E,1,12,1.0,0.0,M,0.0,M,,*7B
$GPGSA,A,3,01,02,03,04,05,06,07,08,09,10,11,12,1.0,1.0,1.0*30
$GPRMC,041543.919,A,0040.653,S,01133.309,E,194.4,340.0,271119,000.0,W*6D
$GPGGA,041544.919,0040.602,S,01133.291,E,1,12,1.0,0.0,M,0.0,M,,*78
$GPGSA,A,3,01,02,03,04,05,06,07,08,09,10,11,12,1.0,1.0,1.0*30
$GPRMC,041544.919,A,0040.602,S,01133.291,E,194.4,340.0,271119,000.0,W*6E
$GPGGA,041545.919,0040.551,S,01133.272,E,1,12,1.0,0.0,M,0.0,M,,*71
$GPGSA,A,3,01,02,03,04,05,06,07,08,09,10,11,12,1.0,1.0,1.0*30
$GPRMC,041545.919,A,0040.551,S,01133.272,E,194.4,340.0,271119,000.0,W*67
$GPGGA,041546.919,0040.501,S,01133.254,E,1,12,1.0,0.0,M,0.0,M,,*73
$GPGSA,A,3,01,02,03,04,05,06,07,08,09,10,11,12,1.0,1.0,1.0*30
$GPRMC,041546.919,A,0040.501,S,01133.254,E,194.4,340.0,271119,000.0,W*65
$GPGGA,041547.919,0040.450,S,01133.235,E,1,12,1.0,0.0,M,0.0,M,,*70
$GPGSA,A,3,01,02,03,04,05,06,07,08,09,10,11,12,1.0,1.0,1.0*30
$GPRMC,041547.919,A,0040.450,S,01133.235,E,194.4,340.0,271119,000.0,W*66
$GPGGA,041548.919,0040.399,S,01133.217,E,1,12,1.0,0.0,M,0.0,M,,*7D
$GPGSA,A,3,01,02,03,04,05,06,07,08,09,10,11,12,1.0,1.0,1.0*30
$GPRMC,041548.919,A,0040.399,S,01133.217,E,194.4,340.0,271119,000.0,W*6B
$GPGGA,041549.919,0040.349,S,01133.198,E,1,12,1.0,0.0,M,0.0,M,,*75
$GPGSA,A,3,01,02,03,04,05,06,07,08,09,10,11,12,1.0,1.0,1.0*30
$GPRMC,041549.919,A,0040.349,S,01133.198,E,194.4,340.0,271119,000.0,W*63
$GPGGA,041550.919,0040.298,S,01133.180,E,1,12,1.0,0.0,M,0.0,M,,*79
$GPGSA,A,3,01,02,03,04,05,06,07,08,09,10,11,12,1.0,1.0,1.0*30
$GPRMC,041550.919,A,0040.298,S,01133.180,E,194.4,340.0,271119,000.0,W*6F
$GPGGA,041551.919,0040.247,S,01133.162,E,1,12,1.0,0.0,M,0.0,M,,*76
$GPGSA,A,3,01,02,03,04,05,06,07,08,09,10,11,12,1.0,1.0,1.0*30
$GPRMC,041551.919,A,0040.247,S,01133.162,E,194.4,340.0,271119,000.0,W*60
$GPGGA,041552.919,0040.196,S,01133.143,E,1,12,1.0,0.0,M,0.0,M,,*79
$GPGSA,A,3,01,02,03,04,05,06,07,08,09,10,11,12,1.0,1.0,1.0*30
$GPRMC,041552.919,A,0040.196,S,01133.143,E,194.4,340.0,271119,000.0,W*6F
$GPGGA,041553.919,0040.146,S,01133.125,E,1,12,1.0,0.0,M,0.0,M,,*75
$GPGSA,A,3,01,02,03,04,05,06,07,08,09,10,11,12,1.0,1.0,1.0*30
$GPRMC,041553.919,A,0040.146,S,01133.125,E,194.4,340.0,271119,000.0,W*63
$GPGGA,041554.919,0040.095,S,01133.106,E,1,12,1.0,0.0,M,0.0,M,,*7C
$GPGSA,A,3,01,02,03,04,05,06,07,08,09,10,11,12,1.0,1.0,1.0*30
$GPRMC,041554.919,A,0040.095,S,01133.106,E,194.4,340.0,271119,000.0,W*6A
$GPGGA,041555.919,0040.044,S,01133.088,E,1,12,1.0,0.0,M,0.0,M,,*76
$GPGSA,A,3,01,02,03,04,05,06,07,08,09,10,11,12,1.0,1.0,1.0*30
$GPRMC,041555.919,A,0040.044,S,01133.088,E,194.4,340.0,271119,000.0,W*60
$GPGGA,041556.919,0039.994,S,01133.069,E,1,12,1.0,0.0,M,0.0,M,,*70
$GPGSA,A,3,01,02,03,04,05,06,07,08,09,10,11,12,1.0,1.0,1.0*30
$GPRMC,041556.919,A,0039.994,S,01133.069,E,194.4,340.0,271119,000.0,W*66
$GPGGA,041557.919,0039.943,S,01133.051,E,1,12,1.0,0.0,M,0.0,M,,*70
$GPGSA,A,3,01,02,03,04,05,06,07,08,09,10,11,12,1.0,1.0,1.0*30
$GPRMC,041557.919,A,0039.943,S,01133.051,E,194.4,340.0,271119,000.0,W*66
$GPGGA,041558.919,0039.892,S,01133.032,E,1,12,1.0,0.0,M,0.0,M,,*77
$GPGSA,A,3,01,02,03,04,05,06,07,08,09,10,11,12,1.0,1.0,1.0*30
$GPRMC,041558.919,A,0039.892,S,01133.032,E,194.4,340.0,271119,000.0,W*61
$GPGGA,041559.919,0039.842,S,01133.014,E,1,12,1.0,0.0,M,0.0,M,,*7F
$GPGSA,A,3,01,02,03,04,05,06,07,08,09,10,11,12,1.0,1.0,1.0*30
$GPRMC,041559.919,A,0039.842,S,01133.014,E,194.4,340.0,271119,000.0,W*69
$GPGGA,041600.919,0039.791,S,01132.995,E,1,12,1.0,0.0,M,0.0,M,,*70
$GPGSA,A,3,01,02,03,04,05,06,07,08,09,10,11,12,1.0,1.0,1.0*30
$GPRMC,041600.919,A,0039.791,S,01132.995,E,194.4,340.0,271119,000.0,W*66
$GPGGA,041601.919,0039.740,S,01132.977,E,1,12,1.0,0.0,M,0.0,M,,*71
$GPGSA,A,3,01,02,03,04,05,06,07,08,09,10,11,12,1.0,1.0,1.0*30
$GPRMC,041601.919,A,0039.740,S,01132.977,E,194.4,340.0,271119,000.0,W*67
$GPGGA,041602.919,0039.689,S,01132.958,E,1,12,1.0,0.0,M,0.0,M,,*7B
$GPGSA,A,3,01,02,03,04,05,06,07,08,09,10,11,12,1.0,1.0,1.0*30
$GPRMC,041602.919,A,0039.689,S,01132.958,E,194.4,340.0,271119,000.0,W*6D
$GPGGA,041603.919,0039.639,S,01132.940,E,1,12,1.0,0.0,M,0.0,M,,*78
$GPGSA,A,3,01,02,03,04,05,06,07,08,09,10,11,12,1.0,1.0,1.0*30
$GPRMC,041603.919,A,0039.639,S,01132.940,E,194.4,340.0,271119,000.0,W*6E
$GPGGA,041604.919,0039.588,S,01132.921,E,1,12,1.0,0.0,M,0.0,M,,*71
$GPGSA,A,3,01,02,03,04,05,06,07,08,09,10,11,12,1.0,1.0,1.0*30
$GPRMC,041604.919,A,0039.588,S,01132.921,E,194.4,340.0,271119,000.0,W*67
$GPGGA,041605.919,0039.537,S,01132.903,E,1,12,1.0,0.0,M,0.0,M,,*74
$GPGSA,A,3,01,02,03,04,05,06,07,08,09,10,11,12,1.0,1.0,1.0*30
$GPRMC,041605.919,A,0039.537,S,01132.903,E,194.4,340.0,271119,000.0,W*62
$GPGGA,041606.919,0039.487,S,01132.885,E,1,12,1.0,0.0,M,0.0,M,,*72
$GPGSA,A,3,01,02,03,04,05,06,07,08,09,10,11,12,1.0,1.0,1.0*30
$GPRMC,041606.919,A,0039.487,S,01132.885,E,194.4,340.0,271119,000.0,W*64
$GPGGA,041607.919,0039.436,S,01132.866,E,1,12,1.0,0.0,M,0.0,M,,*74
$GPGSA,A,3,01,02,03,04,05,06,07,08,09,10,11,12,1.0,1.0,1.0*30
$GPRMC,041607.919,A,0039.436,S,01132.866,E,194.4,340.0,271119,000.0,W*62
$GPGGA,041608.919,0039.385,S,01132.848,E,1,12,1.0,0.0,M,0.0,M,,*78
$GPGSA,A,3,01,02,03,04,05,06,07,08,09,10,11,12,1.0,1.0,1.0*30
$GPRMC,041608.919,A,0039.385,S,01132.848,E,194.4,340.0,271119,000.0,W*6E
$GPGGA,041609.919,0039.335,S,01132.829,E,1,12,1.0,0.0,M,0.0,M,,*75
$GPGSA,A,3,01,02,03,04,05,06,07,08,09,10,11,12,1.0,1.0,1.0*30
$GPRMC,041609.919,A,0039.335,S,01132.829,E,194.4,340.0,271119,000.0,W*63
$GPGGA,041610.919,0039.284,S,01132.811,E,1,12,1.0,0.0,M,0.0,M,,*7D
$GPGSA,A,3,01,02,03,04,05,06,07,08,09,10,11,12,1.0,1.0,1.0*30
$GPRMC,041610.919,A,0039.284,S,01132.811,E,194.4,340.0,271119,000.0,W*6B
$GPGGA,041611.919,0039.233,S,01132.792,E,1,12,1.0,0.0,M,0.0,M,,*74
$GPGSA,A,3,01,02,03,04,05,06,07,08,09,10,11,12,1.0,1.0,1.0*30
$GPRMC,041611.919,A,0039.233,S,01132.792,E,194.4,340.0,271119,000.0,W*62
$GPGGA,041612.919,0039.182,S,01132.774,E,1,12,1.0,0.0,M,0.0,M,,*76
$GPGSA,A,3,01,02,03,04,05,06,07,08,09,10,11,12,1.0,1.0,1.0*30
$GPRMC,041612.919,A,0039.182,S,01132.774,E,194.4,340.0,271119,000.0,W*60
$GPGGA,041613.919,0039.132,S,01132.755,E,1,12,1.0,0.0,M,0.0,M,,*7F
$GPGSA,A,3,01,02,03,04,05,06,07,08,09,10,11,12,1.0,1.0,1.0*30
$GPRMC,041613.919,A,0039.132,S,01132.755,E,194.4,340.0,271119,000.0,W*69
$GPGGA,041614.919,0039.081,S,01132.737,E,1,12,1.0,0.0,M,0.0,M,,*75
$GPGSA,A,3,01,02,03,04,05,06,07,08,09,10,11,12,1.0,1.0,1.0*30
$GPRMC,041614.919,A,0039.081,S,01132.737,E,194.4,340.0,271119,000.0,W*63
$GPGGA,041615.919,0039.030,S,01132.718,E,1,12,1.0,0.0,M,0.0,M,,*73
$GPGSA,A,3,01,02,03,04,05,06,07,08,09,10,11,12,1.0,1.0,1.0*30
$GPRMC,041615.919,A,0039.030,S,01132.718,E,194.4,340.0,271119,000.0,W*65
$GPGGA,041616.919,0038.980,S,01132.700,E,1,12,1.0,0.0,M,0.0,M,,*7A
$GPGSA,A,3,01,02,03,04,05,06,07,08,09,10,11,12,1.0,1.0,1.0*30
$GPRMC,041616.919,A,0038.980,S,01132.700,E,194.4,340.0,271119,000.0,W*6C
$GPGGA,041617.919,0038.929,S,01132.681,E,1,12,1.0,0.0,M,0.0,M,,*70
$GPGSA,A,3,01,02,03,04,05,06,07,08,09,10,11,12,1.0,1.0,1.0*30
$GPRMC,041617.919,A,0038.929,S,01132.681,E,194.4,340.0,271119,000.0,W*66
$GPGGA,041618.919,0038.878,S,01132.663,E,1,12,1.0,0.0,M,0.0,M,,*76
$GPGSA,A,3,01,02,03,04,05,06,07,08,09,10,11,12,1.0,1.0,1.0*30
$GPRMC,041618.919,A,0038.878,S,01132.663,E,194.4,340.0,271119,000.0,W*60
$GPGGA,041619.919,0038.828,S,01132.644,E,1,12,1.0,0.0,M,0.0,M,,*77
$GPGSA,A,3,01,02,03,04,05,06,07,08,09,10,11,12,1.0,1.0,1.0*30
$GPRMC,041619.919,A,0038.828,S,01132.644,E,194.4,340.0,271119,000.0,W*61
$GPGGA,041620.919,0038.777,S,01132.626,E,1,12,1.0,0.0,M,0.0,M,,*7C
$GPGSA,A,3,01,02,03,04,05,06,07,08,09,10,11,12,1.0,1.0,1.0*30
$GPRMC,041620.919,A,0038.777,S,01132.626,E,194.4,340.0,271119,000.0,W*6A
$GPGGA,041621.919,0038.726,S,01132.607,E,1,12,1.0,0.0,M,0.0,M,,*7A
$GPGSA,A,3,01,02,03,04,05,06,07,08,09,10,11,12,1.0,1.0,1.0*30
$GPRMC,041621.919,A,0038.726,S,01132.607,E,194.4,340.0,271119,000.0,W*6C
$GPGGA,041622.919,0038.675,S,01132.589,E,1,12,1.0,0.0,M,0.0,M,,*7B
$GPGSA,A,3,01,02,03,04,05,06,07,08,09,10,11,12,1.0,1.0,1.0*30
$GPRMC,041622.919,A,0038.675,S,01132.589,E,194.4,340.0,271119,000.0,W*6D
$GPGGA,041623.919,0038.625,S,01132.571,E,1,12,1.0,0.0,M,0.0,M,,*78
$GPGSA,A,3,01,02,03,04,05,06,07,08,09,10,11,12,1.0,1.0,1.0*30
$GPRMC,041623.919,A,0038.625,S,01132.571,E,194.4,340.0,271119,000.0,W*6E
$GPGGA,041624.919,0038.574,S,01132.552,E,1,12,1.0,0.0,M,0.0,M,,*79
$GPGSA,A,3,01,02,03,04,05,06,07,08,09,10,11,12,1.0,1.0,1.0*30
$GPRMC,041624.919,A,0038.574,S,01132.552,E,194.4,340.0,271119,000.0,W*6F
$GPGGA,041625.919,0038.523,S,01132.534,E,1,12,1.0,0.0,M,0.0,M,,*7A
$GPGSA,A,3,01,02,03,04,05,06,07,08,09,10,11,12,1.0,1.0,1.0*30
$GPRMC,041625.919,A,0038.523,S,01132.534,E,194.4,340.0,271119,000.0,W*6C
$GPGGA,041626.919,0038.473,S,01132.515,E,1,12,1.0,0.0,M,0.0,M,,*7E
$GPGSA,A,3,01,02,03,04,05,06,07,08,09,10,11,12,1.0,1.0,1.0*30
$GPRMC,041626.919,A,0038.473,S,01132.515,E,194.4,340.0,271119,000.0,W*68
$GPGGA,041627.919,0038.422,S,01132.497,E,1,12,1.0,0.0,M,0.0,M,,*70
$GPGSA,A,3,01,02,03,04,05,06,07,08,09,10,11,12,1.0,1.0,1.0*30
$GPRMC,041627.919,A,0038.422,S,01132.497,E,194.4,340.0,271119,000.0,W*66
$GPGGA,041628.919,0038.371,S,01132.478,E,1,12,1.0,0.0,M,0.0,M,,*7F
$GPGSA,A,3,01,02,03,04,05,06,07,08,09,10,11,12,1.0,1.0,1.0*30
$GPRMC,041628.919,A,0038.371,S,01132.478,E,194.4,340.0,271119,000.0,W*69
$GPGGA,041629.919,0038.321,S,01132.460,E,1,12,1.0,0.0,M,0.0,M,,*72
$GPGSA,A,3,01,02,03,04,05,06,07,08,09,10,11,12,1.0,1.0,1.0*30
$GPRMC,041629.919,A,0038.321,S,01132.460,E,194.4,340.0,271119,000.0,W*64
$GPGGA,041630.919,0038.270,S,01132.441,E,1,12,1.0,0.0,M,0.0,M,,*7C
$GPGSA,A,3,01,02,03,04,05,06,07,08,09,10,11,12,1.0,1.0,1.0*30
$GPRMC,041630.919,A,0038.270,S,01132.441,E,194.4,340.0,271119,000.0,W*6A
$GPGGA,041631.919,0038.219,S,01132.423,E,1,12,1.0,0.0,M,0.0,M,,*76
$GPGSA,A,3,01,02,03,04,05,06,07,08,09,10,11,12,1.0,1.0,1.0*30
$GPRMC,041631.919,A,0038.219,S,01132.423,E,194.4,340.0,271119,000.0,W*60
$GPGGA,041632.919,0038.168,S,01132.404,E,1,12,1.0,0.0,M,0.0,M,,*75
$GPGSA,A,3,01,02,03,04,05,06,07,08,09,10,11,12,1.0,1.0,1.0*30
$GPRMC,041632.919,A,0038.168,S,01132.404,E,194.4,340.0,271119,000.0,W*63
$GPGGA,041633.919,0038.118,S,01132.386,E,1,12,1.0,0.0,M,0.0,M,,*7E
$GPGSA,A,3,01,02,03,04,05,06,07,08,09,10,11,12,1.0,1.0,1.0*30
$GPRMC,041633.919,A,0038.118,S,01132.386,E,194.4,340.0,271119,000.0,W*68
$GPGGA,041634.919,0038.067,S,01132.367,E,1,12,1.0,0.0,M,0.0,M,,*7F
$GPGSA,A,3,01,02,03,04,05,06,07,08,09,10,11,12,1.0,1.0,1.0*30
$GPRMC,041634.919,A,0038.067,S,01132.367,E,194.4,340.0,271119,000.0,W*69
$GPGGA,041635.919,0038.016,S,01132.349,E,1,12,1.0,0.0,M,0.0,M,,*74
$GPGSA,A,3,01,02,03,04,05,06,07,08,09,10,11,12,1.0,1.0,1.0*30
$GPRMC,041635.919,A,0038.016,S,01132.349,E,194.4,340.0,271119,000.0,W*62
$GPGGA,041636.919,0037.966,S,01132.330,E,1,12,1.0,0.0,M,0.0,M,,*78
$GPGSA,A,3,01,02,03,04,05,06,07,08,09,10,11,12,1.0,1.0,1.0*30
$GPRMC,041636.919,A,0037.966,S,01132.330,E,194.4,340.0,271119,000.0,W*6E
$GPGGA,041637.919,0037.915,S,01132.312,E,1,12,1.0,0.0,M,0.0,M,,*7D
$GPGSA,A,3,01,02,03,04,05,06,07,08,09,10,11,12,1.0,1.0,1.0*30
$GPRMC,041637.919,A,0037.915,S,01132.312,E,194.4,340.0,271119,000.0,W*6B
$GPGGA,041638.919,0037.864,S,01132.294,E,1,12,1.0,0.0,M,0.0,M,,*7A
$GPGSA,A,3,01,02,03,04,05,06,07,08,09,10,11,12,1.0,1.0,1.0*30
$GPRMC,041638.919,A,0037.864,S,01132.294,E,194.4,340.0,271119,000.0,W*6C
$GPGGA,041639.919,0037.814,S,01132.275,E,1,12,1.0,0.0,M,0.0,M,,*73
$GPGSA,A,3,01,02,03,04,05,06,07,08,09,10,11,12,1.0,1.0,1.0*30
$GPRMC,041639.919,A,0037.814,S,01132.275,E,194.4,340.0,271119,000.0,W*65
$GPGGA,041640.919,0037.763,S,01132.257,E,1,12,1.0,0.0,M,0.0,M,,*72
$GPGSA,A,3,01,02,03,04,05,06,07,08,09,10,11,12,1.0,1.0,1.0*30
$GPRMC,041640.919,A,0037.763,S,01132.257,E,194.4,340.0,271119,000.0,W*64
$GPGGA,041641.919,0037.712,S,01132.238,E,1,12,1.0,0.0,M,0.0,M,,*7C
$GPGSA,A,3,01,02,03,04,05,06,07,08,09,10,11,12,1.0,1.0,1.0*30
$GPRMC,041641.919,A,0037.712,S,01132.238,E,194.4,340.0,271119,000.0,W*6A
$GPGGA,041642.919,0037.661,S,01132.220,E,1,12,1.0,0.0,M,0.0,M,,*73
$GPGSA,A,3,01,02,03,04,05,06,07,08,09,10,11,12,1.0,1.0,1.0*30
$GPRMC,041642.919,A,0037.661,S,01132.220,E,194.4,340.0,271119,000.0,W*65
$GPGGA,041643.919,0037.611,S,01132.201,E,1,12,1.0,0.0,M,0.0,M,,*76
$GPGSA,A,3,01,02,03,04,05,06,07,08,09,10,11,12,1.0,1.0,1.0*30
$GPRMC,041643.919,A,0037.611,S,01132.201,E,194.4,340.0,271119,000.0,W*60
$GPGGA,041644.919,0037.560,S,01132.183,E,1,12,1.0,0.0,M,0.0,M,,*7D
$GPGSA,A,3,01,02,03,04,05,06,07,08,09,10,11,12,1.0,1.0,1.0*30
$GPRMC,041644.919,A,0037.560,S,01132.183,E,194.4,340.0,271119,000.0,W*6B
$GPGGA,041645.919,0037.509,S,01132.164,E,1,12,1.0,0.0,M,0.0,M,,*7A
$GPGSA,A,3,01,02,03,04,05,06,07,08,09,10,11,12,1.0,1.0,1.0*30
$GPRMC,041645.919,A,0037.509,S,01132.164,E,194.4,340.0,271119,000.0,W*6C
$GPGGA,041646.919,0037.459,S,01132.146,E,1,12,1.0,0.0,M,0.0,M,,*7D
$GPGSA,A,3,01,02,03,04,05,06,07,08,09,10,11,12,1.0,1.0,1.0*30
$GPRMC,041646.919,A,0037.459,S,01132.146,E,194.4,340.0,271119,000.0,W*6B
$GPGGA,041647.919,0037.408,S,01132.127,E,1,12,1.0,0.0,M,0.0,M,,*7F
$GPGSA,A,3,01,02,03,04,05,06,07,08,09,10,11,12,1.0,1.0,1.0*30
$GPRMC,041647.919,A,0037.408,S,01132.127,E,194.4,340.0,271119,000.0,W*69
$GPGGA,041648.919,0037.357,S,01132.109,E,1,12,1.0,0.0,M,0.0,M,,*71
$GPGSA,A,3,01,02,03,04,05,06,07,08,09,10,11,12,1.0,1.0,1.0*30
$GPRMC,041648.919,A,0037.357,S,01132.109,E,194.4,340.0,271119,000.0,W*67
$GPGGA,041649.919,0037.307,S,01132.090,E,1,12,1.0,0.0,M,0.0,M,,*74
$GPGSA,A,3,01,02,03,04,05,06,07,08,09,10,11,12,1.0,1.0,1.0*30
$GPRMC,041649.919,A,0037.307,S,01132.090,E,194.4,340.0,271119,000.0,W*62
$GPGGA,041650.919,0037.256,S,01132.072,E,1,12,1.0,0.0,M,0.0,M,,*75
$GPGSA,A,3,01,02,03,04,05,06,07,08,09,10,11,12,1.0,1.0,1.0*30
$GPRMC,041650.919,A,0037.256,S,01132.072,E,194.4,340.0,271119,000.0,W*63
$GPGGA,041651.919,0037.205,S,01132.053,E,1,12,1.0,0.0,M,0.0,M,,*71
$GPGSA,A,3,01,02,03,04,05,06,07,08,09,10,11,12,1.0,1.0,1.0*30
$GPRMC,041651.919,A,0037.205,S,01132.053,E,194.4,340.0,271119,000.0,W*67
$GPGGA,041652.919,0037.154,S,01132.035,E,1,12,1.0,0.0,M,0.0,M,,*75
$GPGSA,A,3,01,02,03,04,05,06,07,08,09,10,11,12,1.0,1.0,1.0*30
$GPRMC,041652.919,A,0037.154,S,01132.035,E,194.4,340.0,271119,000.0,W*63
$GPGGA,041653.919,0037.104,S,01132.017,E,1,12,1.0,0.0,M,0.0,M,,*71
$GPGSA,A,3,01,02,03,04,05,06,07,08,09,10,11,12,1.0,1.0,1.0*30
$GPRMC,041653.919,A,0037.104,S,01132.017,E,194.4,340.0,271119,000.0,W*67
$GPGGA,041654.919,0037.053,S,01131.998,E,1,12,1.0,0.0,M,0.0,M,,*78
$GPGSA,A,3,01,02,03,04,05,06,07,08,09,10,11,12,1.0,1.0,1.0*30
$GPRMC,041654.919,A,0037.053,S,01131.998,E,194.4,340.0,271119,000.0,W*6E
$GPGGA,041655.919,0037.002,S,01131.980,E,1,12,1.0,0.0,M,0.0,M,,*74
$GPGSA,A,3,01,02,03,04,05,06,07,08,09,10,11,12,1.0,1.0,1.0*30
$GPRMC,041655.919,A,0037.002,S,01131.980,E,194.4,340.0,271119,000.0,W*62
$GPGGA,041656.919,0036.952,S,01131.961,E,1,12,1.0,0.0,M,0.0,M,,*75
$GPGSA,A,3,01,02,03,04,05,06,07,08,09,10,11,12,1.0,1.0,1.0*30
$GPRMC,041656.919,A,0036.952,S,01131.961,E,194.4,340.0,271119,000.0,W*63
$GPGGA,041657.919,0036.901,S,01131.943,E,1,12,1.0,0.0,M,0.0,M,,*72
$GPGSA,A,3,01,02,03,04,05,06,07,08,09,10,11,12,1.0,1.0,1.0*30
$GPRMC,041657.919,A,0036.901,S,01131.943,E,194.4,340.0,271119,000.0,W*64
$GPGGA,041658.919,0036.850,S,01131.924,E,1,12,1.0,0.0,M,0.0,M,,*79
$GPGSA,A,3,01,02,03,04,05,06,07,08,09,10,11,12,1.0,1.0,1.0*30
$GPRMC,041658.919,A,0036.850,S,01131.924,E,194.4,340.0,271119,000.0,W*6F
$GPGGA,041659.919,0036.800,S,01131.906,E,1,12,1.0,0.0,M,0.0,M,,*7D
$GPGSA,A,3,01,02,03,04,05,06,07,08,09,10,11,12,1.0,1.0,1.0*30
$GPRMC,041659.919,A,0036.800,S,01131.906,E,194.4,340.0,271119,000.0,W*6B
$GPGGA,041700.919,0036.749,S,01131.887,E,1,12,1.0,0.0,M,0.0,M,,*7A
$GPGSA,A,3,01,02,03,04,05,06,07,08,09,10,11,12,1.0,1.0,1.0*30
$GPRMC,041700.919,A,0036.749,S,01131.887,E,194.4,340.0,271119,000.0,W*6C
$GPGGA,041701.919,0036.698,S,01131.869,E,1,12,1.0,0.0,M,0.0,M,,*76
$GPGSA,A,3,01,02,03,04,05,06,07,08,09,10,11,12,1.0,1.0,1.0*30
$GPRMC,041701.919,A,0036.698,S,01131.869,E,194.4,340.0,271119,000.0,W*60
$GPGGA,041702.919,0036.647,S,01131.850,E,1,12,1.0,0.0,M,0.0,M,,*7D
$GPGSA,A,3,01,02,03,04,05,06,07,08,09,10,11,12,1.0,1.0,1.0*30
$GPRMC,041702.919,A,0036.647,S,01131.850,E,194.4,340.0,271119,000.0,W*6B
$GPGGA,041703.919,0036.597,S,01131.832,E,1,12,1.0,0.0,M,0.0,M,,*76
$GPGSA,A,3,01,02,03,04,05,06,07,08,09,10,11,12,1.0,1.0,1.0*30
$GPRMC,041703.919,A,0036.597,S,01131.832,E,194.4,340.0,271119,000.0,W*60
$GPGGA,041704.919,0036.546,S,01131.813,E,1,12,1.0,0.0,M,0.0,M,,*7E
$GPGSA,A,3,01,02,03,04,05,06,07,08,09,10,11,12,1.0,1.0,1.0*30
$GPRMC,041704.919,A,0036.546,S,01131.813,E,194.4,340.0,271119,000.0,W*68
$GPGGA,041705.919,0036.495,S,01131.795,E,1,12,1.0,0.0,M,0.0,M,,*71
$GPGSA,A,3,01,02,03,04,05,06,07,08,09,10,11,12,1.0,1.0,1.0*30
$GPRMC,041705.919,A,0036.495,S,01131.795,E,194.4,340.0,271119,000.0,W*67
$GPGGA,041706.919,0036.445,S,01131.776,E,1,12,1.0,0.0,M,0.0,M,,*72
$GPGSA,A,3,01,02,03,04,05,06,07,08,09,10,11,12,1.0,1.0,1.0*30
$GPRMC,041706.919,A,0036.445,S,01131.776,E,194.4,340.0,271119,000.0,W*64
$GPGGA,041707.919,0036.394,S,01131.758,E,1,12,1.0,0.0,M,0.0,M,,*74
$GPGSA,A,3,01,02,03,04,05,06,07,08,09,10,11,12,1.0,1.0,1.0*30
$GPRMC,041707.919,A,0036.394,S,01131.758,E,194.4,340.0,271119,000.0,W*62
$GPGGA,041708.919,0036.343,S,01131.739,E,1,12,1.0,0.0,M,0.0,M,,*76
$GPGSA,A,3,01,02,03,04,05,06,07,08,09,10,11,12,1.0,1.0,1.0*30
$GPRMC,041708.919,A,0036.343,S,01131.739,E,194.4,340.0,271119,000.0,W*60
$GPGGA,041709.919,0036.293,S,01131.721,E,1,12,1.0,0.0,M,0.0,M,,*72
$GPGSA,A,3,01,02,03,04,05,06,07,08,09,10,11,12,1.0,1.0,1.0*30
$GPRMC,041709.919,A,0036.293,S,01131.721,E,194.4,340.0,271119,000.0,W*64
$GPGGA,041710.919,0036.242,S,01131.703,E,1,12,1.0,0.0,M,0.0,M,,*76
$GPGSA,A,3,01,02,03,04,05,06,07,08,09,10,11,12,1.0,1.0,1.0*30
$GPRMC,041710.919,A,0036.242,S,01131.703,E,194.4,340.0,271119,000.0,W*60
$GPGGA,041711.919,0036.191,S,01131.684,E,1,12,1.0,0.0,M,0.0,M,,*74
$GPGSA,A,3,01,02,03,04,05,06,07,08,09,10,11,12,1.0,1.0,1.0*30
$GPRMC,041711.919,A,0036.191,S,01131.684,E,194.4,340.0,271119,000.0,W*62
$GPGGA,041712.919,0036.140,S,01131.666,E,1,12,1.0,0.0,M,0.0,M,,*77
$GPGSA,A,3,01,02,03,04,05,06,07,08,09,10,11,12,1.0,1.0,1.0*30
$GPRMC,041712.919,A,0036.140,S,01131.666,E,194.4,340.0,271119,000.0,W*61
$GPGGA,041713.919,0036.090,S,01131.647,E,1,12,1.0,0.0,M,0.0,M,,*79
$GPGSA,A,3,01,02,03,04,05,06,07,08,09,10,11,12,1.0,1.0,1.0*30
$GPRMC,041713.919,A,0036.090,S,01131.647,E,194.4,340.0,271119,000.0,W*6F
$GPGGA,041714.919,0036.039,S,01131.629,E,1,12,1.0,0.0,M,0.0,M,,*75
$GPGSA,A,3,01,02,03,04,05,06,07,08,09,10,11,12,1.0,1.0,1.0*30
$GPRMC,041714.919,A,0036.039,S,01131.629,E,194.4,340.0,271119,000.0,W*63
$GPGGA,041715.919,0035.988,S,01131.610,E,1,12,1.0,0.0,M,0.0,M,,*7E
$GPGSA,A,3,01,02,03,04,05,06,07,08,09,10,11,12,1.0,1.0,1.0*30
$GPRMC,041715.919,A,0035.988,S,01131.610,E,194.4,340.0,271119,000.0,W*68
$GPGGA,041716.919,0035.938,S,01131.592,E,1,12,1.0,0.0,M,0.0,M,,*7F
$GPGSA,A,3,01,02,03,04,05,06,07,08,09,10,11,12,1.0,1.0,1.0*30
$GPRMC,041716.919,A,0035.938,S,01131.592,E,194.4,340.0,271119,000.0,W*69
$GPGGA,041717.919,0035.887,S,01131.573,E,1,12,1.0,0.0,M,0.0,M,,*74
$GPGSA,A,3,01,02,03,04,05,06,07,08,09,10,11,12,1.0,1.0,1.0*30
$GPRMC,041717.919,A,0035.887,S,01131.573,E,194.4,340.0,271119,000.0,W*62
$GPGGA,041718.919,0035.836,S,01131.555,E,1,12,1.0,0.0,M,0.0,M,,*75
$GPGSA,A,3,01,02,03,04,05,06,07,08,09,10,11,12,1.0,1.0,1.0*30
$GPRMC,041718.919,A,0035.836,S,01131.555,E,194.4,340.0,271119,000.0,W*63
$GPGGA,041719.919,0035.786,S,01131.536,E,1,12,1.0,0.0,M,0.0,M,,*75
$GPGSA,A,3,01,02,03,04,05,06,07,08,09,10,11,12,1.0,1.0,1.0*30
$GPRMC,041719.919,A,0035.786,S,01131.536,E,194.4,340.0,271119,000.0,W*63
$GPGGA,041720.919,0035.735,S,01131.518,E,1,12,1.0,0.0,M,0.0,M,,*7B
$GPGSA,A,3,01,02,03,04,05,06,07,08,09,10,11,12,1.0,1.0,1.0*30
$GPRMC,041720.919,A,0035.735,S,01131.518,E,194.4,340.0,271119,000.0,W*6D
$GPGGA,041721.919,0035.684,S,01131.499,E,1,12,1.0,0.0,M,0.0,M,,*79
$GPGSA,A,3,01,02,03,04,05,06,07,08,09,10,11,12,1.0,1.0,1.0*30
$GPRMC,041721.919,A,0035.684,S,01131.499,E,194.4,340.0,271119,000.0,W*6F
$GPGGA,041722.919,0035.633,S,01131.481,E,1,12,1.0,0.0,M,0.0,M,,*7F
$GPGSA,A,3,01,02,03,04,05,06,07,08,09,10,11,12,1.0,1.0,1.0*30
$GPRMC,041722.919,A,0035.633,S,01131.481,E,194.4,340.0,271119,000.0,W*69
$GPGGA,041723.919,0035.583,S,01131.462,E,1,12,1.0,0.0,M,0.0,M,,*7B
$GPGSA,A,3,01,02,03,04,05,06,07,08,09,10,11,12,1.0,1.0,1.0*30
$GPRMC,041723.919,A,0035.583,S,01131.462,E,194.4,340.0,271119,000.0,W*6D
$GPGGA,041724.919,0035.532,S,01131.444,E,1,12,1.0,0.0,M,0.0,M,,*72
$GPGSA,A,3,01,02,03,04,05,06,07,08,09,10,11,12,1.0,1.0,1.0*30
$GPRMC,041724.919,A,0035.532,S,01131.444,E,194.4,340.0,271119,000.0,W*64
$GPGGA,041725.919,0035.481,S,01131.426,E,1,12,1.0,0.0,M,0.0,M,,*7E
$GPGSA,A,3,01,02,03,04,05,06,07,08,09,10,11,12,1.0,1.0,1.0*30
$GPRMC,041725.919,A,0035.481,S,01131.426,E,194.4,340.0,271119,000.0,W*68
$GPGGA,041726.919,0035.431,S,01131.407,E,1,12,1.0,0.0,M,0.0,M,,*75
$GPGSA,A,3,01,02,03,04,05,06,07,08,09,10,11,12,1.0,1.0,1.0*30
$GPRMC,041726.919,A,0035.431,S,01131.407,E,194.4,340.0,271119,000.0,W*63
$GPGGA,041727.919,0035.380,S,01131.389,E,1,12,1.0,0.0,M,0.0,M,,*78
$GPGSA,A,3,01,02,03,04,05,06,07,08,09,10,11,12,1.0,1.0,1.0*30
$GPRMC,041727.919,A,0035.380,S,01131.389,E,194.4,340.0,271119,000.0,W*6E
$GPGGA,041728.919,0035.329,S,01131.370,E,1,12,1.0,0.0,M,0.0,M,,*72
$GPGSA,A,3,01,02,03,04,05,06,07,08,09,10,11,12,1.0,1.0,1.0*30
$GPRMC,041728.919,A,0035.329,S,01131.370,E,194.4,340.0,271119,000.0,W*64
$GPGGA,041729.919,0035.279,S,01131.352,E,1,12,1.0,0.0,M,0.0,M,,*77
$GPGSA,A,3,01,02,03,04,05,06,07,08,09,10,11,12,1.0,1.0,1.0*30
$GPRMC,041729.919,A,0035.279,S,01131.352,E,194.4,340.0,271119,000.0,W*61
$GPGGA,041730.919,0035.228,S,01131.333,E,1,12,1.0,0.0,M,0.0,M,,*7C
$GPGSA,A,3,01,02,03,04,05,06,07,08,09,10,11,12,1.0,1.0,1.0*30
$GPRMC,041730.919,A,0035.228,S,01131.333,E,194.4,340.0,271119,000.0,W*6A
$GPGGA,041731.919,0035.177,S,01131.315,E,1,12,1.0,0.0,M,0.0,M,,*70
$GPGSA,A,3,01,02,03,04,05,06,07,08,09,10,11,12,1.0,1.0,1.0*30
$GPRMC,041731.919,A,0035.177,S,01131.315,E,194.4,340.0,271119,000.0,W*66
$GPGGA,041732.919,0035.126,S,01131.296,E,1,12,1.0,0.0,M,0.0,M,,*7D
$GPGSA,A,3,01,02,03,04,05,06,07,08,09,10,11,12,1.0,1.0,1.0*30
$GPRMC,041732.919,A,0035.126,S,01131.296,E,194.4,340.0,271119,000.0,W*6B
$GPGGA,041733.919,0035.076,S,01131.278,E,1,12,1.0,0.0,M,0.0,M,,*78
$GPGSA,A,3,01,02,03,04,05,06,07,08,09,10,11,12,1.0,1.0,1.0*30
$GPRMC,041733.919,A,0035.076,S,01131.278,E,194.4,340.0,271119,000.0,W*6E
$GPGGA,041734.919,0035.025,S,01131.259,E,1,12,1.0,0.0,M,0.0,M,,*7A
$GPGSA,A,3,01,02,03,04,05,06,07,08,09,10,11,12,1.0,1.0,1.0*30
$GPRMC,041734.919,A,0035.025,S,01131.259,E,194.4,340.0,271119,000.0,W*6C
$GPGGA,041735.919,0034.974,S,01131.241,E,1,12,1.0,0.0,M,0.0,M,,*7E
$GPGSA,A,3,01,02,03,04,05,06,07,08,09,10,11,12,1.0,1.0,1.0*30
$GPRMC,041735.919,A,0034.974,S,01131.241,E,194.4,340.0,271119,000.0,W*68
$GPGGA,041736.919,0034.924,S,01131.222,E,1,12,1.0,0.0,M,0.0,M,,*7D
$GPGSA,A,3,01,02,03,04,05,06,07,08,09,10,11,12,1.0,1.0,1.0*30
$GPRMC,041736.919,A,0034.924,S,01131.222,E,194.4,340.0,271119,000.0,W*6B
$GPGGA,041737.919,0034.873,S,01131.204,E,1,12,1.0,0.0,M,0.0,M,,*7B
$GPGSA,A,3,01,02,03,04,05,06,07,08,09,10,11,12,1.0,1.0,1.0*30
$GPRMC,041737.919,A,0034.873,S,01131.204,E,194.4,340.0,271119,000.0,W*6D
$GPGGA,041738.919,0034.822,S,01131.185,E,1,12,1.0,0.0,M,0.0,M,,*7A
$GPGSA,A,3,01,02,03,04,05,06,07,08,09,10,11,12,1.0,1.0,1.0*30
$GPRMC,041738.919,A,0034.822,S,01131.185,E,194.4,340.0,271119,000.0,W*6C
$GPGGA,041739.919,0034.772,S,01131.167,E,1,12,1.0,0.0,M,0.0,M,,*7D
$GPGSA,A,3,01,02,03,04,05,06,07,08,09,10,11,12,1.0,1.0,1.0*30
$GPRMC,041739.919,A,0034.772,S,01131.167,E,194.4,340.0,271119,000.0,W*6B
$GPGGA,041740.919,0034.721,S,01131.148,E,1,12,1.0,0.0,M,0.0,M,,*78
$GPGSA,A,3,01,02,03,04,05,06,07,08,09,10,11,12,1.0,1.0,1.0*30
$GPRMC,041740.919,A,0034.721,S,01131.148,E,194.4,340.0,271119,000.0,W*6E
$GPGGA,041741.919,0034.670,S,01131.130,E,1,12,1.0,0.0,M,0.0,M,,*73
$GPGSA,A,3,01,02,03,04,05,06,07,08,09,10,11,12,1.0,1.0,1.0*30
$GPRMC,041741.919,A,0034.670,S,01131.130,E,194.4,340.0,271119,000.0,W*65
$GPGGA,041742.919,0034.619,S,01131.112,E,1,12,1.0,0.0,M,0.0,M,,*7F
$GPGSA,A,3,01,02,03,04,05,06,07,08,09,10,11,12,1.0,1.0,1.0*30
$GPRMC,041742.919,A,0034.619,S,01131.112,E,194.4,340.0,271119,000.0,W*69
$GPGGA,041743.919,0034.569,S,01131.093,E,1,12,1.0,0.0,M,0.0,M,,*72
$GPGSA,A,3,01,02,03,04,05,06,07,08,09,10,11,12,1.0,1.0,1.0*30
$GPRMC,041743.919,A,0034.569,S,01131.093,E,194.4,340.0,271119,000.0,W*64
$GPGGA,041744.919,0034.518,S,01131.075,E,1,12,1.0,0.0,M,0.0,M,,*7B
$GPGSA,A,3,01,02,03,04,05,06,07,08,09,10,11,12,1.0,1.0,1.0*30
$GPRMC,041744.919,A,0034.518,S,01131.075,E,194.4,340.0,271119,000.0,W*6D
$GPGGA,041745.919,0034.467,S,01131.056,E,1,12,1.0,0.0,M,0.0,M,,*72
$GPGSA,A,3,01,02,03,04,05,06,07,08,09,10,11,12,1.0,1.0,1.0*30
$GPRMC,041745.919,A,0034.467,S,01131.056,E,194.4,340.0,271119,000.0,W*64
$GPGGA,041746.919,0034.417,S,01131.038,E,1,12,1.0,0.0,M,0.0,M,,*7E
$GPGSA,A,3,01,02,03,04,05,06,07,08,09,10,11,12,1.0,1.0,1.0*30
$GPRMC,041746.919,A,0034.417,S,01131.038,E,194.4,340.0,271119,000.0,W*68
$GPGGA,041747.919,0034.366,S,01131.019,E,1,12,1.0,0.0,M,0.0,M,,*7D
$GPGSA,A,3,01,02,03,04,05,06,07,08,09,10,11,12,1.0,1.0,1.0*30
$GPRMC,041747.919,A,0034.366,S,01131.019,E,194.4,340.0,271119,000.0,W*6B
$GPGGA,041748.919,0034.315,S,01131.001,E,1,12,1.0,0.0,M,0.0,M,,*7F
$GPGSA,A,3,01,02,03,04,05,06,07,08,09,10,11,12,1.0,1.0,1.0*30
$GPRMC,041748.919,A,0034.315,S,01131.001,E,194.4,340.0,271119,000.0,W*69
$GPGGA,041749.919,0034.264,S,01130.982,E,1,12,1.0,0.0,M,0.0,M,,*7A
$GPGSA,A,3,01,02,03,04,05,06,07,08,09,10,11,12,1.0,1.0,1.0*30
$GPRMC,041749.919,A,0034.264,S,01130.982,E,194.4,340.0,271119,000.0,W*6C
$GPGGA,041750.919,0034.214,S,01130.964,E,1,12,1.0,0.0,M,0.0,M,,*7D
$GPGSA,A,3,01,02,03,04,05,06,07,08,09,10,11,12,1.0,1.0,1.0*30
$GPRMC,041750.919,A,0034.214,S,01130.964,E,194.4,340.0,271119,000.0,W*6B
$GPGGA,041751.919,0034.163,S,01130.945,E,1,12,1.0,0.0,M,0.0,M,,*7C
$GPGSA,A,3,01,02,03,04,05,06,07,08,09,10,11,12,1.0,1.0,1.0*30
$GPRMC,041751.919,A,0034.163,S,01130.945,E,194.4,340.0,271119,000.0,W*6A
$GPGGA,041752.919,0034.112,S,01130.927,E,1,12,1.0,0.0,M,0.0,M,,*7D
$GPGSA,A,3,01,02,03,04,05,06,07,08,09,10,11,12,1.0,1.0,1.0*30
$GPRMC,041752.919,A,0034.112,S,01130.927,E,194.4,340.0,271119,000.0,W*6B
$GPGGA,041753.919,0034.062,S,01130.908,E,1,12,1.0,0.0,M,0.0,M,,*77
$GPGSA,A,3,01,02,03,04,05,06,07,08,09,10,11,12,1.0,1.0,1.0*30
$GPRMC,041753.919,A,0034.062,S,01130.908,E,194.4,340.0,271119,000.0,W*61
$GPGGA,041754.919,0034.011,S,01130.890,E,1,12,1.0,0.0,M,0.0,M,,*74
$GPGSA,A,3,01,02,03,04,05,06,07,08,09,10,11,12,1.0,1.0,1.0*30
$GPRMC,041754.919,A,0034.011,S,01130.890,E,194.4,340.0,271119,000.0,W*62
$GPGGA,041755.919,0033.960,S,01130.871,E,1,12,1.0,0.0,M,0.0,M,,*72
$GPGSA,A,3,01,02,03,04,05,06,07,08,09,10,11,12,1.0,1.0,1.0*30
$GPRMC,041755.919,A,0033.960,S,01130.871,E,194.4,340.0,271119,000.0,W*64
$GPGGA,041756.919,0033.910,S,01130.853,E,1,12,1.0,0.0,M,0.0,M,,*76
$GPGSA,A,3,01,02,03,04,05,06,07,08,09,10,11,12,1.0,1.0,1.0*30
$GPRMC,041756.919,A,0033.910,S,01130.853,E,194.4,340.0,271119,000.0,W*60
$GPGGA,041757.919,0033.859,S,01130.835,E,1,12,1.0,0.0,M,0.0,M,,*7B
$GPGSA,A,3,01,02,03,04,05,06,07,08,09,10,11,12,1.0,1.0,1.0*30
$GPRMC,041757.919,A,0033.859,S,01130.835,E,194.4,340.0,271119,000.0,W*6D
$GPGGA,041758.919,0033.808,S,01130.816,E,1,12,1.0,0.0,M,0.0,M,,*71
$GPGSA,A,3,01,02,03,04,05,06,07,08,09,10,11,12,1.0,1.0,1.0*30
$GPRMC,041758.919,A,0033.808,S,01130.816,E,194.4,340.0,271119,000.0,W*67
$GPGGA,041759.919,0033.757,S,01130.798,E,1,12,1.0,0.0,M,0.0,M,,*7C
$GPGSA,A,3,01,02,03,04,05,06,07,08,09,10,11,12,1.0,1.0,1.0*30
$GPRMC,041759.919,A,0033.757,S,01130.798,E,194.4,340.0,271119,000.0,W*6A
$GPGGA,041800.919,0033.707,S,01130.779,E,1,12,1.0,0.0,M,0.0,M,,*75
$GPGSA,A,3,01,02,03,04,05,06,07,08,09,10,11,12,1.0,1.0,1.0*30
$GPRMC,041800.919,A,0033.707,S,01130.779,E,194.4,340.0,271119,000.0,W*63
$GPGGA,041801.919,0033.656,S,01130.761,E,1,12,1.0,0.0,M,0.0,M,,*78
$GPGSA,A,3,01,02,03,04,05,06,07,08,09,10,11,12,1.0,1.0,1.0*30
$GPRMC,041801.919,A,0033.656,S,01130.761,E,194.4,340.0,271119,000.0,W*6E
$GPGGA,041802.919,0033.605,S,01130.742,E,1,12,1.0,0.0,M,0.0,M,,*7C
$GPGSA,A,3,01,02,03,04,05,06,07,08,09,10,11,12,1.0,1.0,1.0*30
$GPRMC,041802.919,A,0033.605,S,01130.742,E,194.4,340.0,271119,000.0,W*6A
$GPGGA,041803.919,0033.555,S,01130.724,E,1,12,1.0,0.0,M,0.0,M,,*7B
$GPGSA,A,3,01,02,03,04,05,06,07,08,09,10,11,12,1.0,1.0,1.0*30
$GPRMC,041803.919,A,0033.555,S,01130.724,E,194.4,340.0,271119,000.0,W*6D
$GPGGA,041804.919,0033.504,S,01130.705,E,1,12,1.0,0.0,M,0.0,M,,*7B
$GPGSA,A,3,01,02,03,04,05,06,07,08,09,10,11,12,1.0,1.0,1.0*30
$GPRMC,041804.919,A,0033.504,S,01130.705,E,194.4,340.0,271119,000.0,W*6D
$GPGGA,041805.919,0033.453,S,01130.687,E,1,12,1.0,0.0,M,0.0,M,,*72
$GPGSA,A,3,01,02,03,04,05,06,07,08,09,10,11,12,1.0,1.0,1.0*30
$GPRMC,041805.919,A,0033.453,S,01130.687,E,194.4,340.0,271119,000.0,W*64
$GPGGA,041806.919,0033.403,S,01130.668,E,1,12,1.0,0.0,M,0.0,M,,*75
$GPGSA,A,3,01,02,03,04,05,06,07,08,09,10,11,12,1.0,1.0,1.0*30
$GPRMC,041806.919,A,0033.403,S,01130.668,E,194.4,340.0,271119,000.0,W*63
$GPGGA,041807.919,0033.352,S,01130.650,E,1,12,1.0,0.0,M,0.0,M,,*7C
$GPGSA,A,3,01,02,03,04,05,06,07,08,09,10,11,12,1.0,1.0,1.0*30
$GPRMC,041807.919,A,0033.352,S,01130.650,E,194.4,340.0,271119,000.0,W*6A
$GPGGA,041808.919,0033.301,S,01130.631,E,1,12,1.0,0.0,M,0.0,M,,*72
$GPGSA,A,3,01,02,03,04,05,06,07,08,09,10,11,12,1.0,1.0,1.0*30
$GPRMC,041808.919,A,0033.301,S,01130.631,E,194.4,340.0,271119,000.0,W*64
$GPGGA,041809.919,0033.250,S,01130.613,E,1,12,1.0,0.0,M,0.0,M,,*76
$GPGSA,A,3,01,02,03,04,05,06,07,08,09,10,11,12,1.0,1.0,1.0*30
$GPRMC,041809.919,A,0033.250,S,01130.613,E,194.4,340.0,271119,000.0,W*60
$GPGGA,041810.919,0033.200,S,01130.594,E,1,12,1.0,0.0,M,0.0,M,,*77
$GPGSA,A,3,01,02,03,04,05,06,07,08,09,10,11,12,1.0,1.0,1.0*30
$GPRMC,041810.919,A,0033.200,S,01130.594,E,194.4,340.0,271119,000.0,W*61
$GPGGA,041811.919,0033.149,S,01130.576,E,1,12,1.0,0.0,M,0.0,M,,*74
$GPGSA,A,3,01,02,03,04,05,06,07,08,09,10,11,12,1.0,1.0,1.0*30
$GPRMC,041811.919,A,0033.149,S,01130.576,E,194.4,340.0,271119,000.0,W*62
$GPGGA,041812.919,0033.098,S,01130.558,E,1,12,1.0,0.0,M,0.0,M,,*76
$GPGSA,A,3,01,02,03,04,05,06,07,08,09,10,11,12,1.0,1.0,1.0*30
$GPRMC,041812.919,A,0033.098,S,01130.558,E,194.4,340.0,271119,000.0,W*60
$GPGGA,041813.919,0033.048,S,01130.539,E,1,12,1.0,0.0,M,0.0,M,,*7D
$GPGSA,A,3,01,02,03,04,05,06,07,08,09,10,11,12,1.0,1.0,1.0*30
$GPRMC,041813.919,A,0033.048,S,01130.539,E,194.4,340.0,271119,000.0,W*6B
$GPGGA,041814.919,0032.997,S,01130.521,E,1,12,1.0,0.0,M,0.0,M,,*79
$GPGSA,A,3,01,02,03,04,05,06,07,08,09,10,11,12,1.0,1.0,1.0*30
$GPRMC,041814.919,A,0032.997,S,01130.521,E,194.4,340.0,271119,000.0,W*6F
$GPGGA,041815.919,0032.946,S,01130.502,E,1,12,1.0,0.0,M,0.0,M,,*75
$GPGSA,A,3,01,02,03,04,05,06,07,08,09,10,11,12,1.0,1.0,1.0*30
$GPRMC,041815.919,A,0032.946,S,01130.502,E,194.4,340.0,271119,000.0,W*63
$GPGGA,041816.919,0032.896,S,01130.484,E,1,12,1.0,0.0,M,0.0,M,,*75
$GPGSA,A,3,01,02,03,04,05,06,07,08,09,10,11,12,1.0,1.0,1.0*30
$GPRMC,041816.919,A,0032.896,S,01130.484,E,194.4,340.0,271119,000.0,W*63
$GPGGA,041817.919,0032.845,S,01130.465,E,1,12,1.0,0.0,M,0.0,M,,*75
$GPGSA,A,3,01,02,03,04,05,06,07,08,09,10,11,12,1.0,1.0,1.0*30
$GPRMC,041817.919,A,0032.845,S,01130.465,E,194.4,340.0,271119,000.0,W*63
$GPGGA,041818.919,0032.794,S,01130.447,E,1,12,1.0,0.0,M,0.0,M,,*79
$GPGSA,A,3,01,02,03,04,05,06,07,08,09,10,11,12,1.0,1.0,1.0*30
$GPRMC,041818.919,A,0032.794,S,01130.447,E,194.4,340.0,271119,000.0,W*6F
$GPGGA,041819.919,0032.743,S,01130.428,E,1,12,1.0,0.0,M,0.0,M,,*7B
$GPGSA,A,3,01,02,03,04,05,06,07,08,09,10,11,12,1.0,1.0,1.0*30
$GPRMC,041819.919,A,0032.743,S,01130.428,E,194.4,340.0,271119,000.0,W*6D
$GPGGA,041820.919,0032.693,S,01130.410,E,1,12,1.0,0.0,M,0.0,M,,*76
$GPGSA,A,3,01,02,03,04,05,06,07,08,09,10,11,12,1.0,1.0,1.0*30
$GPRMC,041820.919,A,0032.693,S,01130.410,E,194.4,340.0,271119,000.0,W*60
$GPGGA,041821.919,0032.642,S,01130.391,E,1,12,1.0,0.0,M,0.0,M,,*75
$GPGSA,A,3,01,02,03,04,05,06,07,08,09,10,11,12,1.0,1.0,1.0*30
$GPRMC,041821.919,A,0032.642,S,01130.391,E,194.4,340.0,271119,000.0,W*63
$GPGGA,041822.919,0032.591,S,01130.373,E,1,12,1.0,0.0,M,0.0,M,,*77
$GPGSA,A,3,01,02,03,04,05,06,07,08,09,10,11,12,1.0,1.0,1.0*30
$GPRMC,041822.919,A,0032.591,S,01130.373,E,194.4,340.0,271119,000.0,W*61
$GPGGA,041823.919,0032.541,S,01130.354,E,1,12,1.0,0.0,M,0.0,M,,*7E
$GPGSA,A,3,01,02,03,04,05,06,07,08,09,10,11,12,1.0,1.0,1.0*30
$GPRMC,041823.919,A,0032.541,S,01130.354,E,194.4,340.0,271119,000.0,W*68
$GPGGA,041824.919,0032.490,S,01130.336,E,1,12,1.0,0.0,M,0.0,M,,*70
$GPGSA,A,3,01,02,03,04,05,06,07,08,09,10,11,12,1.0,1.0,1.0*30
$GPRMC,041824.919,A,0032.490,S,01130.336,E,194.4,340.0,271119,000.0,W*66
$GPGGA,041825.919,0032.439,S,01130.317,E,1,12,1.0,0.0,M,0.0,M,,*71
$GPGSA,A,3,01,02,03,04,05,06,07,08,09,10,11,12,1.0,1.0,1.0*30
$GPRMC,041825.919,A,0032.439,S,01130.317,E,194.4,340.0,271119,000.0,W*67
$GPGGA,041826.919,0032.389,S,01130.299,E,1,12,1.0,0.0,M,0.0,M,,*79
$GPGSA,A,3,01,02,03,04,05,06,07,08,09,10,11,12,1.0,1.0,1.0*30
$GPRMC,041826.919,A,0032.389,S,01130.299,E,194.4,340.0,271119,000.0,W*6F
$GPGGA,041827.919,0032.338,S,01130.280,E,1,12,1.0,0.0,M,0.0,M,,*7A
$GPGSA,A,3,01,02,03,04,05,06,07,08,09,10,11,12,1.0,1.0,1.0*30
$GPRMC,041827.919,A,0032.338,S,01130.280,E,194.4,340.0,271119,000.0,W*6C
$GPGGA,041828.919,0032.287,S,01130.262,E,1,12,1.0,0.0,M,0.0,M,,*7C
$GPGSA,A,3,01,02,03,04,05,06,07,08,09,10,11,12,1.0,1.0,1.0*30
$GPRMC,041828.919,A,0032.287,S,01130.262,E,194.4,340.0,271119,000.0,W*6A
$GPGGA,041829.919,0032.236,S,01130.244,E,1,12,1.0,0.0,M,0.0,M,,*73
$GPGSA,A,3,01,02,03,04,05,06,07,08,09,10,11,12,1.0,1.0,1.0*30
$GPRMC,041829.919,A,0032.236,S,01130.244,E,194.4,340.0,271119,000.0,W*65
$GPGGA,041830.919,0032.186,S,01130.225,E,1,12,1.0,0.0,M,0.0,M,,*74
$GPGSA,A,3,01,02,03,04,05,06,07,08,09,10,11,12,1.0,1.0,1.0*30
$GPRMC,041830.919,A,0032.186,S,01130.225,E,194.4,340.0,271119,000.0,W*62
$GPGGA,041831.919,0032.135,S,01130.207,E,1,12,1.0,0.0,M,0.0,M,,*7D
$GPGSA,A,3,01,02,03,04,05,06,07,08,09,10,11,12,1.0,1.0,1.0*30
$GPRMC,041831.919,A,0032.135,S,01130.207,E,194.4,340.0,271119,000.0,W*6B
$GPGGA,041832.919,0032.084,S,01130.188,E,1,12,1.0,0.0,M,0.0,M,,*71
$GPGSA,A,3,01,02,03,04,05,06,07,08,09,10,11,12,1.0,1.0,1.0*30
$GPRMC,041832.919,A,0032.084,S,01130.188,E,194.4,340.0,271119,000.0,W*67
$GPGGA,041833.919,0032.034,S,01130.170,E,1,12,1.0,0.0,M,0.0,M,,*7C
$GPGSA,A,3,01,02,03,04,05,06,07,08,09,10,11,12,1.0,1.0,1.0*30
$GPRMC,041833.919,A,0032.034,S,01130.170,E,194.4,340.0,271119,000.0,W*6A
$GPGGA,041834.919,0031.983,S,01130.151,E,1,12,1.0,0.0,M,0.0,M,,*7E
$GPGSA,A,3,01,02,03,04,05,06,07,08,09,10,11,12,1.0,1.0,1.0*30
$GPRMC,041834.919,A,0031.983,S,01130.151,E,194.4,340.0,271119,000.0,W*68
$GPGGA,041835.919,0031.932,S,01130.133,E,1,12,1.0,0.0,M,0.0,M,,*71
$GPGSA,A,3,01,02,03,04,05,06,07,08,09,10,11,12,1.0,1.0,1.0*30
$GPRMC,041835.919,A,0031.932,S,01130.133,E,194.4,340.0,271119,000.0,W*67
$GPGGA,041836.919,0031.882,S,01130.114,E,1,12,1.0,0.0,M,0.0,M,,*7D
$GPGSA,A,3,01,02,03,04,05,06,07,08,09,10,11,12,1.0,1.0,1.0*30
$GPRMC,041836.919,A,0031.882,S,01130.114,E,194.4,340.0,271119,000.0,W*6B
$GPGGA,041837.919,0031.831,S,01130.096,E,1,12,1.0,0.0,M,0.0,M,,*7F
$GPGSA,A,3,01,02,03,04,05,06,07,08,09,10,11,12,1.0,1.0,1.0*30
$GPRMC,041837.919,A,0031.831,S,01130.096,E,194.4,340.0,271119,000.0,W*69
$GPGGA,041838.919,0031.780,S,01130.077,E,1,12,1.0,0.0,M,0.0,M,,*7A
$GPGSA,A,3,01,02,03,04,05,06,07,08,09,10,11,12,1.0,1.0,1.0*30
$GPRMC,041838.919,A,0031.780,S,01130.077,E,194.4,340.0,271119,000.0,W*6C
$GPGGA,041839.919,0031.729,S,01130.059,E,1,12,1.0,0.0,M,0.0,M,,*74
$GPGSA,A,3,01,02,03,04,05,06,07,08,09,10,11,12,1.0,1.0,1.0*30
$GPRMC,041839.919,A,0031.729,S,01130.059,E,194.4,340.0,271119,000.0,W*62
$GPGGA,041840.919,0031.679,S,01130.040,E,1,12,1.0,0.0,M,0.0,M,,*76
$GPGSA,A,3,01,02,03,04,05,06,07,08,09,10,11,12,1.0,1.0,1.0*30
$GPRMC,041840.919,A,0031.679,S,01130.040,E,194.4,340.0,271119,000.0,W*60
$GPGGA,041841.919,0031.628,S,01130.022,E,1,12,1.0,0.0,M,0.0,M,,*77
$GPGSA,A,3,01,02,03,04,05,06,07,08,09,10,11,12,1.0,1.0,1.0*30
$GPRMC,041841.919,A,0031.628,S,01130.022,E,194.4,340.0,271119,000.0,W*61
$GPGGA,041842.919,0031.577,S,01130.003,E,1,12,1.0,0.0,M,0.0,M,,*7E
$GPGSA,A,3,01,02,03,04,05,06,07,08,09,10,11,12,1.0,1.0,1.0*30
$GPRMC,041842.919,A,0031.577,S,01130.003,E,194.4,294.5,271119,000.0,W*65
$GPGGA,041843.919,0031.555,S,01129.954,E,1,12,1.0,0.0,M,0.0,M,,*7C
$GPGSA,A,3,01,02,03,04,05,06,07,08,09,10,11,12,1.0,1.0,1.0*30
$GPRMC,041843.919,A,0031.555,S,01129.954,E,194.4,294.5,271119,000.0,W*67
$GPGGA,041844.919,0031.533,S,01129.905,E,1,12,1.0,0.0,M,0.0,M,,*7F
$GPGSA,A,3,01,02,03,04,05,06,07,08,09,10,11,12,1.0,1.0,1.0*30
$GPRMC,041844.919,A,0031.533,S,01129.905,E,194.4,294.5,271119,000.0,W*64
$GPGGA,041845.919,0031.510,S,01129.856,E,1,12,1.0,0.0,M,0.0,M,,*78
$GPGSA,A,3,01,02,03,04,05,06,07,08,09,10,11,12,1.0,1.0,1.0*30
$GPRMC,041845.919,A,0031.510,S,01129.856,E,194.4,294.5,271119,000.0,W*63
$GPGGA,041846.919,0031.488,S,01129.807,E,1,12,1.0,0.0,M,0.0,M,,*7F
$GPGSA,A,3,01,02,03,04,05,06,07,08,09,10,11,12,1.0,1.0,1.0*30
$GPRMC,041846.919,A,0031.488,S,01129.807,E,194.4,294.5,271119,000.0,W*64
$GPGGA,041847.919,0031.466,S,01129.758,E,1,12,1.0,0.0,M,0.0,M,,*7B
$GPGSA,A,3,01,02,03,04,05,06,07,08,09,10,11,12,1.0,1.0,1.0*30
$GPRMC,041847.919,A,0031.466,S,01129.758,E,194.4,294.5,271119,000.0,W*60
$GPGGA,041848.919,0031.443,S,01129.709,E,1,12,1.0,0.0,M,0.0,M,,*77
$GPGSA,A,3,01,02,03,04,05,06,07,08,09,10,11,12,1.0,1.0,1.0*30
$GPRMC,041848.919,A,0031.443,S,01129.709,E,194.4,294.5,271119,000.0,W*6C
$GPGGA,041849.919,0031.421,S,01129.660,E,1,12,1.0,0.0,M,0.0,M,,*7C
$GPGSA,A,3,01,02,03,04,05,06,07,08,09,10,11,12,1.0,1.0,1.0*30
$GPRMC,041849.919,A,0031.421,S,01129.660,E,194.4,294.5,271119,000.0,W*67
$GPGGA,041850.919,0031.399,S,01129.611,E,1,12,1.0,0.0,M,0.0,M,,*76
$GPGSA,A,3,01,02,03,04,05,06,07,08,09,10,11,12,1.0,1.0,1.0*30
$GPRMC,041850.919,A,0031.399,S,01129.611,E,194.4,294.5,271119,000.0,W*6D
$GPGGA,041851.919,0031.376,S,01129.561,E,1,12,1.0,0.0,M,0.0,M,,*72
$GPGSA,A,3,01,02,03,04,05,06,07,08,09,10,11,12,1.0,1.0,1.0*30
$GPRMC,041851.919,A,0031.376,S,01129.561,E,194.4,294.5,271119,000.0,W*69
$GPGGA,041852.919,0031.354,S,01129.512,E,1,12,1.0,0.0,M,0.0,M,,*75
$GPGSA,A,3,01,02,03,04,05,06,07,08,09,10,11,12,1.0,1.0,1.0*30
$GPRMC,041852.919,A,0031.354,S,01129.512,E,194.4,294.5,271119,000.0,W*6E
$GPGGA,041853.919,0031.331,S,01129.463,E,1,12,1.0,0.0,M,0.0,M,,*70
$GPGSA,A,3,01,02,03,04,05,06,07,08,09,10,11,12,1.0,1.0,1.0*30
$GPRMC,041853.919,A,0031.331,S,01129.463,E,194.4,294.5,271119,000.0,W*6B
$GPGGA,041854.919,0031.309,S,01129.414,E,1,12,1.0,0.0,M,0.0,M,,*7C
$GPGSA,A,3,01,02,03,04,05,06,07,08,09,10,11,12,1.0,1.0,1.0*30
$GPRMC,041854.919,A,0031.309,S,01129.414,E,194.4,294.5,271119,000.0,W*67
$GPGGA,041855.919,0031.287,S,01129.365,E,1,12,1.0,0.0,M,0.0,M,,*7B
$GPGSA,A,3,01,02,03,04,05,06,07,08,09,10,11,12,1.0,1.0,1.0*30
$GPRMC,041855.919,A,0031.287,S,01129.365,E,194.4,294.5,271119,000.0,W*60
$GPGGA,041856.919,0031.264,S,01129.316,E,1,12,1.0,0.0,M,0.0,M,,*71
$GPGSA,A,3,01,02,03,04,05,06,07,08,09,10,11,12,1.0,1.0,1.0*30
$GPRMC,041856.919,A,0031.264,S,01129.316,E,194.4,294.5,271119,000.0,W*6A
$GPGGA,041857.919,0031.242,S,01129.267,E,1,12,1.0,0.0,M,0.0,M,,*73
$GPGSA,A,3,01,02,03,04,05,06,07,08,09,10,11,12,1.0,1.0,1.0*30
$GPRMC,041857.919,A,0031.242,S,01129.267,E,194.4,294.5,271119,000.0,W*68
$GPGGA,041858.919,0031.220,S,01129.218,E,1,12,1.0,0.0,M,0.0,M,,*70
$GPGSA,A,3,01,02,03,04,05,06,07,08,09,10,11,12,1.0,1.0,1.0*30
$GPRMC,041858.919,A,0031.220,S,01129.218,E,194.4,294.5,271119,000.0,W*6B
$GPGGA,041859.919,0031.197,S,01129.169,E,1,12,1.0,0.0,M,0.0,M,,*7B
$GPGSA,A,3,01,02,03,04,05,06,07,08,09,10,11,12,1.0,1.0,1.0*30
$GPRMC,041859.919,A,0031.197,S,01129.169,E,194.4,294.5,271119,000.0,W*60
$GPGGA,041900.919,0031.175,S,01129.119,E,1,12,1.0,0.0,M,0.0,M,,*7D
$GPGSA,A,3,01,02,03,04,05,06,07,08,09,10,11,12,1.0,1.0,1.0*30
$GPRMC,041900.919,A,0031.175,S,01129.119,E,194.4,294.5,271119,000.0,W*66
$GPGGA,041901.919,0031.153,S,01129.070,E,1,12,1.0,0.0,M,0.0,M,,*76
$GPGSA,A,3,01,02,03,04,05,06,07,08,09,10,11,12,1.0,1.0,1.0*30
$GPRMC,041901.919,A,0031.153,S,01129.070,E,194.4,294.5,271119,000.0,W*6D
$GPGGA,041902.919,0031.130,S,01129.021,E,1,12,1.0,0.0,M,0.0,M,,*74
$GPGSA,A,3,01,02,03,04,05,06,07,08,09,10,11,12,1.0,1.0,1.0*30
$GPRMC,041902.919,A,0031.130,S,01129.021,E,194.4,294.5,271119,000.0,W*6F
$GPGGA,041903.919,0031.108,S,01128.972,E,1,12,1.0,0.0,M,0.0,M,,*70
$GPGSA,A,3,01,02,03,04,05,06,07,08,09,10,11,12,1.0,1.0,1.0*30
$GPRMC,041903.919,A,0031.108,S,01128.972,E,194.4,294.5,271119,000.0,W*6B
$GPGGA,041904.919,0031.086,S,01128.923,E,1,12,1.0,0.0,M,0.0,M,,*74
$GPGSA,A,3,01,02,03,04,05,06,07,08,09,10,11,12,1.0,1.0,1.0*30
$GPRMC,041904.919,A,0031.086,S,01128.923,E,194.4,294.5,271119,000.0,W*6F
$GPGGA,041905.919,0031.063,S,01128.874,E,1,12,1.0,0.0,M,0.0,M,,*7D
$GPGSA,A,3,01,02,03,04,05,06,07,08,09,10,11,12,1.0,1.0,1.0*30
$GPRMC,041905.919,A,0031.063,S,01128.874,E,194.4,294.5,271119,000.0,W*66
$GPGGA,041906.919,0031.041,S,01128.825,E,1,12,1.0,0.0,M,0.0,M,,*7A
$GPGSA,A,3,01,02,03,04,05,06,07,08,09,10,11,12,1.0,1.0,1.0*30
$GPRMC,041906.919,A,0031.041,S,01128.825,E,194.4,294.5,271119,000.0,W*61
$GPGGA,041907.919,0031.019,S,01128.776,E,1,12,1.0,0.0,M,0.0,M,,*7F
$GPGSA,A,3,01,02,03,04,05,06,07,08,09,10,11,12,1.0,1.0,1.0*30
$GPRMC,041907.919,A,0031.019,S,01128.776,E,194.4,294.5,271119,000.0,W*64
$GPGGA,041908.919,0030.996,S,01128.726,E,1,12,1.0,0.0,M,0.0,M,,*7A
$GPGSA,A,3,01,02,03,04,05,06,07,08,09,10,11,12,1.0,1.0,1.0*30
$GPRMC,041908.919,A,0030.996,S,01128.726,E,194.4,294.5,271119,000.0,W*61
$GPGGA,041909.919,0030.974,S,01128.677,E,1,12,1.0,0.0,M,0.0,M,,*72
$GPGSA,A,3,01,02,03,04,05,06,07,08,09,10,11,12,1.0,1.0,1.0*30
$GPRMC,041909.919,A,0030.974,S,01128.677,E,194.4,294.5,271119,000.0,W*69
$GPGGA,041910.919,0030.952,S,01128.628,E,1,12,1.0,0.0,M,0.0,M,,*74
$GPGSA,A,3,01,02,03,04,05,06,07,08,09,10,11,12,1.0,1.0,1.0*30
$GPRMC,041910.919,A,0030.952,S,01128.628,E,194.4,294.5,271119,000.0,W*6F
$GPGGA,041911.919,0030.929,S,01128.579,E,1,12,1.0,0.0,M,0.0,M,,*7E
$GPGSA,A,3,01,02,03,04,05,06,07,08,09,10,11,12,1.0,1.0,1.0*30
$GPRMC,041911.919,A,0030.929,S,01128.579,E,194.4,294.5,271119,000.0,W*65
$GPGGA,041912.919,0030.907,S,01128.530,E,1,12,1.0,0.0,M,0.0,M,,*7C
$GPGSA,A,3,01,02,03,04,05,06,07,08,09,10,11,12,1.0,1.0,1.0*30
$GPRMC,041912.919,A,0030.907,S,01128.530,E,194.4,294.5,271119,000.0,W*67
$GPGGA,041913.919,0030.884,S,01128.481,E,1,12,1.0,0.0,M,0.0,M,,*7C
$GPGSA,A,3,01,02,03,04,05,06,07,08,09,10,11,12,1.0,1.0,1.0*30
$GPRMC,041913.919,A,0030.884,S,01128.481,E,194.4,294.5,271119,000.0,W*67
$GPGGA,041914.919,0030.862,S,01128.432,E,1,12,1.0,0.0,M,0.0,M,,*7B
$GPGSA,A,3,01,02,03,04,05,06,07,08,09,10,11,12,1.0,1.0,1.0*30
$GPRMC,041914.919,A,0030.862,S,01128.432,E,194.4,294.5,271119,000.0,W*60
$GPGGA,041915.919,0030.840,S,01128.383,E,1,12,1.0,0.0,M,0.0,M,,*77
$GPGSA,A,3,01,02,03,04,05,06,07,08,09,10,11,12,1.0,1.0,1.0*30
$GPRMC,041915.919,A,0030.840,S,01128.383,E,194.4,294.5,271119,000.0,W*6C
$GPGGA,041916.919,0030.817,S,01128.334,E,1,12,1.0,0.0,M,0.0,M,,*7A
$GPGSA,A,3,01,02,03,04,05,06,07,08,09,10,11,12,1.0,1.0,1.0*30
$GPRMC,041916.919,A,0030.817,S,01128.334,E,194.4,294.5,271119,000.0,W*61
$GPGGA,041917.919,0030.795,S,01128.284,E,1,12,1.0,0.0,M,0.0,M,,*74
$GPGSA,A,3,01,02,03,04,05,06,07,08,09,10,11,12,1.0,1.0,1.0*30
$GPRMC,041917.919,A,0030.795,S,01128.284,E,194.4,294.5,271119,000.0,W*6F
$GPGGA,041918.919,0030.773,S,01128.235,E,1,12,1.0,0.0,M,0.0,M,,*79
$GPGSA,A,3,01,02,03,04,05,06,07,08,09,10,11,12,1.0,1.0,1.0*30
$GPRMC,041918.919,A,0030.773,S,01128.235,E,194.4,294.5,271119,000.0,W*62
$GPGGA,041919.919,0030.750,S,01128.186,E,1,12,1.0,0.0,M,0.0,M,,*72
$GPGSA,A,3,01,02,03,04,05,06,07,08,09,10,11,12,1.0,1.0,1.0*30
$GPRMC,041919.919,A,0030.750,S,01128.186,E,194.4,294.5,271119,000.0,W*69
$GPGGA,041920.919,0030.728,S,01128.137,E,1,12,1.0,0.0,M,0.0,M,,*7D
$GPGSA,A,3,01,02,03,04,05,06,07,08,09,10,11,12,1.0,1.0,1.0*30
$GPRMC,041920.919,A,0030.728,S,01128.137,E,194.4,294.5,271119,000.0,W*66
$GPGGA,041921.919,0030.706,S,01128.088,E,1,12,1.0,0.0,M,0.0,M,,*75
$GPGSA,A,3,01,02,03,04,05,06,07,08,09,10,11,12,1.0,1.0,1.0*30
$GPRMC,041921.919,A,0030.706,S,01128.088,E,194.4,294.5,271119,000.0,W*6E
$GPGGA,041922.919,0030.683,S,01128.039,E,1,12,1.0,0.0,M,0.0,M,,*70
$GPGSA,A,3,01,02,03,04,05,06,07,08,09,10,11,12,1.0,1.0,1.0*30
$GPRMC,041922.919,A,0030.683,S,01128.039,E,194.4,294.5,271119,000.0,W*6B
$GPGGA,041923.919,0030.661,S,01127.990,E,1,12,1.0,0.0,M,0.0,M,,*78
$GPGSA,A,3,01,02,03,04,05,06,07,08,09,10,11,12,1.0,1.0,1.0*30
$GPRMC,041923.919,A,0030.661,S,01127.990,E,194.4,294.5,271119,000.0,W*63
$GPGGA,041924.919,0030.639,S,01127.941,E,1,12,1.0,0.0,M,0.0,M,,*7E
$GPGSA,A,3,01,02,03,04,05,06,07,08,09,10,11,12,1.0,1.0,1.0*30
$GPRMC,041924.919,A,0030.639,S,01127.941,E,194.4,294.5,271119,000.0,W*65
$GPGGA,041925.919,0030.616,S,01127.892,E,1,12,1.0,0.0,M,0.0,M,,*7D
$GPGSA,A,3,01,02,03,04,05,06,07,08,09,10,11,12,1.0,1.0,1.0*30
$GPRMC,041925.919,A,0030.616,S,01127.892,E,194.4,294.5,271119,000.0,W*66
$GPGGA,041926.919,0030.594,S,01127.842,E,1,12,1.0,0.0,M,0.0,M,,*7A
$GPGSA,A,3,01,02,03,04,05,06,07,08,09,10,11,12,1.0,1.0,1.0*30
$GPRMC,041926.919,A,0030.594,S,01127.842,E,194.4,294.5,271119,000.0,W*61
$GPGGA,041927.919,0030.572,S,01127.793,E,1,12,1.0,0.0,M,0.0,M,,*70
$GPGSA,A,3,01,02,03,04,05,06,07,08,09,10,11,12,1.0,1.0,1.0*30
$GPRMC,041927.919,A,0030.572,S,01127.793,E,194.4,294.5,271119,000.0,W*6B
$GPGGA,041928.919,0030.549,S,01127.744,E,1,12,1.0,0.0,M,0.0,M,,*7D
$GPGSA,A,3,01,02,03,04,05,06,07,08,09,10,11,12,1.0,1.0,1.0*30
$GPRMC,041928.919,A,0030.549,S,01127.744,E,194.4,294.5,271119,000.0,W*66
$GPGGA,041929.919,0030.527,S,01127.695,E,1,12,1.0,0.0,M,0.0,M,,*79
$GPGSA,A,3,01,02,03,04,05,06,07,08,09,10,11,12,1.0,1.0,1.0*30
$GPRMC,041929.919,A,0030.527,S,01127.695,E,194.4,294.5,271119,000.0,W*62
$GPGGA,041930.919,0030.504,S,01127.646,E,1,12,1.0,0.0,M,0.0,M,,*7E
$GPGSA,A,3,01,02,03,04,05,06,07,08,09,10,11,12,1.0,1.0,1.0*30
$GPRMC,041930.919,A,0030.504,S,01127.646,E,194.4,314.5,271119,000.0,W*6C
$GPGGA,041931.919,0030.467,S,01127.607,E,1,12,1.0,0.0,M,0.0,M,,*7E
$GPGSA,A,3,01,02,03,04,05,06,07,08,09,10,11,12,1.0,1.0,1.0*30
$GPRMC,041931.919,A,0030.467,S,01127.607,E,194.4,314.5,271119,000.0,W*6C
$GPGGA,041932.919,0030.429,S,01127.569,E,1,12,1.0,0.0,M,0.0,M,,*7C
$GPGSA,A,3,01,02,03,04,05,06,07,08,09,10,11,12,1.0,1.0,1.0*30
$GPRMC,041932.919,A,0030.429,S,01127.569,E,194.4,314.5,271119,000.0,W*6E
$GPGGA,041933.919,0030.391,S,01127.530,E,1,12,1.0,0.0,M,0.0,M,,*75
$GPGSA,A,3,01,02,03,04,05,06,07,08,09,10,11,12,1.0,1.0,1.0*30
$GPRMC,041933.919,A,0030.391,S,01127.530,E,194.4,314.5,271119,000.0,W*67
