$GPGGA,014721.932,4740.047,N,12212.081,W,1,12,1.0,0.0,M,0.0,M,,*7A
$GPGSA,A,3,01,02,03,04,05,06,07,08,09,10,11,12,1.0,1.0,1.0*30
$GPRMC,014721.932,A,4740.047,N,12212.081,W,038.9,284.4,171119,000.0,W*68
$GPGGA,014722.932,4740.051,N,12212.096,W,1,12,1.0,0.0,M,0.0,M,,*78
$GPGSA,A,3,01,02,03,04,05,06,07,08,09,10,11,12,1.0,1.0,1.0*30
$GPRMC,014722.932,A,4740.051,N,12212.096,W,038.9,284.4,171119,000.0,W*6A
$GPGGA,014723.932,4740.055,N,12212.111,W,1,12,1.0,0.0,M,0.0,M,,*73
$GPGSA,A,3,01,02,03,04,05,06,07,08,09,10,11,12,1.0,1.0,1.0*30
$GPRMC,014723.932,A,4740.055,N,12212.111,W,038.9,270.2,171119,000.0,W*6C
$GPGGA,014724.932,4740.055,N,12212.127,W,1,12,1.0,0.0,M,0.0,M,,*71
$GPGSA,A,3,01,02,03,04,05,06,07,08,09,10,11,12,1.0,1.0,1.0*30
$GPRMC,014724.932,A,4740.055,N,12212.127,W,038.9,270.2,171119,000.0,W*6E
$GPGGA,014725.932,4740.055,N,12212.143,W,1,12,1.0,0.0,M,0.0,M,,*72
$GPGSA,A,3,01,02,03,04,05,06,07,08,09,10,11,12,1.0,1.0,1.0*30
$GPRMC,014725.932,A,4740.055,N,12212.143,W,038.9,270.2,171119,000.0,W*6D
$GPGGA,014726.932,4740.055,N,12212.159,W,1,12,1.0,0.0,M,0.0,M,,*7A
$GPGSA,A,3,01,02,03,04,05,06,07,08,09,10,11,12,1.0,1.0,1.0*30
$GPRMC,014726.932,A,4740.055,N,12212.159,W,038.9,270.2,171119,000.0,W*65
$GPGGA,014727.932,4740.055,N,12212.175,W,1,12,1.0,0.0,M,0.0,M,,*75
$GPGSA,A,3,01,02,03,04,05,06,07,08,09,10,11,12,1.0,1.0,1.0*30
$GPRMC,014727.932,A,4740.055,N,12212.175,W,038.9,270.2,171119,000.0,W*6A
$GPGGA,014728.932,4740.055,N,12212.192,W,1,12,1.0,0.0,M,0.0,M,,*73
$GPGSA,A,3,01,02,03,04,05,06,07,08,09,10,11,12,1.0,1.0,1.0*30
$GPRMC,014728.932,A,4740.055,N,12212.192,W,038.9,270.2,171119,000.0,W*6C
$GPGGA,014729.932,4740.055,N,12212.208,W,1,12,1.0,0.0,M,0.0,M,,*72
$GPGSA,A,3,01,02,03,04,05,06,07,08,09,10,11,12,1.0,1.0,1.0*30
$GPRMC,014729.932,A,4740.055,N,12212.208,W,038.9,270.2,171119,000.0,W*6D
$GPGGA,014730.932,4740.055,N,12212.224,W,1,12,1.0,0.0,M,0.0,M,,*74
$GPGSA,A,3,01,02,03,04,05,06,07,08,09,10,11,12,1.0,1.0,1.0*30
$GPRMC,014730.932,A,4740.055,N,12212.224,W,038.9,270.2,171119,000.0,W*6B
$GPGGA,014731.932,4740.055,N,12212.240,W,1,12,1.0,0.0,M,0.0,M,,*77
$GPGSA,A,3,01,02,03,04,05,06,07,08,09,10,11,12,1.0,1.0,1.0*30
$GPRMC,014731.932,A,4740.055,N,12212.240,W,038.9,270.2,171119,000.0,W*68
$GPGGA,014732.932,4740.055,N,12212.256,W,1,12,1.0,0.0,M,0.0,M,,*73
$GPGSA,A,3,01,02,03,04,05,06,07,08,09,10,11,12,1.0,1.0,1.0*30
$GPRMC,014732.932,A,4740.055,N,12212.256,W,038.9,270.2,171119,000.0,W*6C
$GPGGA,014733.932,4740.055,N,12212.272,W,1,12,1.0,0.0,M,0.0,M,,*74
$GPGSA,A,3,01,02,03,04,05,06,07,08,09,10,11,12,1.0,1.0,1.0*30
$GPRMC,014733.932,A,4740.055,N,12212.272,W,038.9,270.2,171119,000.0,W*6B
$GPGGA,014734.932,4740.055,N,12212.288,W,1,12,1.0,0.0,M,0.0,M,,*76
$GPGSA,A,3,01,02,03,04,05,06,07,08,09,10,11,12,1.0,1.0,1.0*30
$GPRMC,014734.932,A,4740.055,N,12212.288,W,038.9,270.2,171119,000.0,W*69
$GPGGA,014735.932,4740.056,N,12212.304,W,1,12,1.0,0.0,M,0.0,M,,*71
$GPGSA,A,3,01,02,03,04,05,06,07,08,09,10,11,12,1.0,1.0,1.0*30
$GPRMC,014735.932,A,4740.056,N,12212.304,W,038.9,270.2,171119,000.0,W*6E
$GPGGA,014736.932,4740.056,N,12212.320,W,1,12,1.0,0.0,M,0.0,M,,*74
$GPGSA,A,3,01,02,03,04,05,06,07,08,09,10,11,12,1.0,1.0,1.0*30
$GPRMC,014736.932,A,4740.056,N,12212.320,W,038.9,270.2,171119,000.0,W*6B
$GPGGA,014737.932,4740.056,N,12212.336,W,1,12,1.0,0.0,M,0.0,M,,*72
$GPGSA,A,3,01,02,03,04,05,06,07,08,09,10,11,12,1.0,1.0,1.0*30
$GPRMC,014737.932,A,4740.056,N,12212.336,W,038.9,270.2,171119,000.0,W*6D
$GPGGA,014738.932,4740.056,N,12212.352,W,1,12,1.0,0.0,M,0.0,M,,*7F
$GPGSA,A,3,01,02,03,04,05,06,07,08,09,10,11,12,1.0,1.0,1.0*30
$GPRMC,014738.932,A,4740.056,N,12212.352,W,038.9,270.2,171119,000.0,W*60
$GPGGA,014739.932,4740.056,N,12212.368,W,1,12,1.0,0.0,M,0.0,M,,*77
$GPGSA,A,3,01,02,03,04,05,06,07,08,09,10,11,12,1.0,1.0,1.0*30
$GPRMC,014739.932,A,4740.056,N,12212.368,W,038.9,270.2,171119,000.0,W*68
$GPGGA,014740.932,4740.056,N,12212.384,W,1,12,1.0,0.0,M,0.0,M,,*7B
$GPGSA,A,3,01,02,03,04,05,06,07,08,09,10,11,12,1.0,1.0,1.0*30
$GPRMC,014740.932,A,4740.056,N,12212.384,W,038.9,270.2,171119,000.0,W*64
$GPGGA,014741.932,4740.056,N,12212.400,W,1,12,1.0,0.0,M,0.0,M,,*71
$GPGSA,A,3,01,02,03,04,05,06,07,08,09,10,11,12,1.0,1.0,1.0*30
$GPRMC,014741.932,A,4740.056,N,12212.400,W,038.9,342.5,171119,000.0,W*69
$GPGGA,014742.932,4740.066,N,12212.403,W,1,12,1.0,0.0,M,0.0,M,,*72
$GPGSA,A,3,01,02,03,04,05,06,07,08,09,10,11,12,1.0,1.0,1.0*30
$GPRMC,014742.932,A,4740.066,N,12212.403,W,038.9,342.5,171119,000.0,W*6A
$GPGGA,014743.932,4740.077,N,12212.407,W,1,12,1.0,0.0,M,0.0,M,,*77
$GPGSA,A,3,01,02,03,04,05,06,07,08,09,10,11,12,1.0,1.0,1.0*30
$GPRMC,014743.932,A,4740.077,N,12212.407,W,038.9,358.1,171119,000.0,W*60
$GPGGA,014744.932,4740.088,N,12212.407,W,1,12,1.0,0.0,M,0.0,M,,*70
$GPGSA,A,3,01,02,03,04,05,06,07,08,09,10,11,12,1.0,1.0,1.0*30
$GPRMC,014744.932,A,4740.088,N,12212.407,W,038.9,358.1,171119,000.0,W*67
$GPGGA,014745.932,4740.099,N,12212.407,W,1,12,1.0,0.0,M,0.0,M,,*71
$GPGSA,A,3,01,02,03,04,05,06,07,08,09,10,11,12,1.0,1.0,1.0*30
$GPRMC,014745.932,A,4740.099,N,12212.407,W,038.9,358.1,171119,000.0,W*66
$GPGGA,014746.932,4740.109,N,12212.408,W,1,12,1.0,0.0,M,0.0,M,,*75
$GPGSA,A,3,01,02,03,04,05,06,07,08,09,10,11,12,1.0,1.0,1.0*30
$GPRMC,014746.932,A,4740.109,N,12212.408,W,038.9,358.1,171119,000.0,W*62
$GPGGA,014747.932,4740.120,N,12212.408,W,1,12,1.0,0.0,M,0.0,M,,*7F
$GPGSA,A,3,01,02,03,04,05,06,07,08,09,10,11,12,1.0,1.0,1.0*30
$GPRMC,014747.932,A,4740.120,N,12212.408,W,038.9,358.1,171119,000.0,W*68
$GPGGA,014748.932,4740.131,N,12212.408,W,1,12,1.0,0.0,M,0.0,M,,*70
$GPGSA,A,3,01,02,03,04,05,06,07,08,09,10,11,12,1.0,1.0,1.0*30
$GPRMC,014748.932,A,4740.131,N,12212.408,W,038.9,014.1,171119,000.0,W*6C
$GPGGA,014749.932,4740.142,N,12212.406,W,1,12,1.0,0.0,M,0.0,M,,*7B
$GPGSA,A,3,01,02,03,04,05,06,07,08,09,10,11,12,1.0,1.0,1.0*30
$GPRMC,014749.932,A,4740.142,N,12212.406,W,038.9,014.1,171119,000.0,W*67
$GPGGA,014750.932,4740.152,N,12212.403,W,1,12,1.0,0.0,M,0.0,M,,*77
$GPGSA,A,3,01,02,03,04,05,06,07,08,09,10,11,12,1.0,1.0,1.0*30
$GPRMC,014750.932,A,4740.152,N,12212.403,W,038.9,014.1,171119,000.0,W*6B
$GPGGA,014751.932,4740.163,N,12212.400,W,1,12,1.0,0.0,M,0.0,M,,*77
$GPGSA,A,3,01,02,03,04,05,06,07,08,09,10,11,12,1.0,1.0,1.0*30
$GPRMC,014751.932,A,4740.163,N,12212.400,W,038.9,014.1,171119,000.0,W*6B
$GPGGA,014752.932,4740.173,N,12212.398,W,1,12,1.0,0.0,M,0.0,M,,*73
$GPGSA,A,3,01,02,03,04,05,06,07,08,09,10,11,12,1.0,1.0,1.0*30
$GPRMC,014752.932,A,4740.173,N,12212.398,W,038.9,027.0,171119,000.0,W*6E
$GPGGA,014753.932,4740.184,N,12212.392,W,1,12,1.0,0.0,M,0.0,M,,*70
$GPGSA,A,3,01,02,03,04,05,06,07,08,09,10,11,12,1.0,1.0,1.0*30
$GPRMC,014753.932,A,4740.184,N,12212.392,W,038.9,027.0,171119,000.0,W*6D
$GPGGA,014754.932,4740.194,N,12212.387,W,1,12,1.0,0.0,M,0.0,M,,*72
$GPGSA,A,3,01,02,03,04,05,06,07,08,09,10,11,12,1.0,1.0,1.0*30
$GPRMC,014754.932,A,4740.194,N,12212.387,W,038.9,027.0,171119,000.0,W*6F
$GPGGA,014755.932,4740.204,N,12212.382,W,1,12,1.0,0.0,M,0.0,M,,*7C
$GPGSA,A,3,01,02,03,04,05,06,07,08,09,10,11,12,1.0,1.0,1.0*30
$GPRMC,014755.932,A,4740.204,N,12212.382,W,038.9,027.0,171119,000.0,W*61
$GPGGA,014756.932,4740.214,N,12212.377,W,1,12,1.0,0.0,M,0.0,M,,*74
$GPGSA,A,3,01,02,03,04,05,06,07,08,09,10,11,12,1.0,1.0,1.0*30
$GPRMC,014756.932,A,4740.214,N,12212.377,W,038.9,027.0,171119,000.0,W*69
$GPGGA,014757.932,4740.225,N,12212.372,W,1,12,1.0,0.0,M,0.0,M,,*72
$GPGSA,A,3,01,02,03,04,05,06,07,08,09,10,11,12,1.0,1.0,1.0*30
$GPRMC,014757.932,A,4740.225,N,12212.372,W,038.9,027.0,171119,000.0,W*6F
$GPGGA,014758.932,4740.235,N,12212.366,W,1,12,1.0,0.0,M,0.0,M,,*79
$GPGSA,A,3,01,02,03,04,05,06,07,08,09,10,11,12,1.0,1.0,1.0*30
$GPRMC,014758.932,A,4740.235,N,12212.366,W,038.9,034.3,171119,000.0,W*65
$GPGGA,014759.932,4740.245,N,12212.360,W,1,12,1.0,0.0,M,0.0,M,,*79
$GPGSA,A,3,01,02,03,04,05,06,07,08,09,10,11,12,1.0,1.0,1.0*30
$GPRMC,014759.932,A,4740.245,N,12212.360,W,038.9,034.3,171119,000.0,W*65
$GPGGA,014800.932,4740.254,N,12212.353,W,1,12,1.0,0.0,M,0.0,M,,*7A
$GPGSA,A,3,01,02,03,04,05,06,07,08,09,10,11,12,1.0,1.0,1.0*30
$GPRMC,014800.932,A,4740.254,N,12212.353,W,038.9,034.3,171119,000.0,W*66
$GPGGA,014801.932,4740.264,N,12212.346,W,1,12,1.0,0.0,M,0.0,M,,*7C
$GPGSA,A,3,01,02,03,04,05,06,07,08,09,10,11,12,1.0,1.0,1.0*30
$GPRMC,014801.932,A,4740.264,N,12212.346,W,038.9,034.3,171119,000.0,W*60
$GPGGA,014802.932,4740.274,N,12212.340,W,1,12,1.0,0.0,M,0.0,M,,*78
$GPGSA,A,3,01,02,03,04,05,06,07,08,09,10,11,12,1.0,1.0,1.0*30
$GPRMC,014802.932,A,4740.274,N,12212.340,W,038.9,007.6,171119,000.0,W*61
$GPGGA,014803.932,4740.285,N,12212.338,W,1,12,1.0,0.0,M,0.0,M,,*78
$GPGSA,A,3,01,02,03,04,05,06,07,08,09,10,11,12,1.0,1.0,1.0*30
$GPRMC,014803.932,A,4740.285,N,12212.338,W,038.9,007.6,171119,000.0,W*61
$GPGGA,014804.932,4740.295,N,12212.337,W,1,12,1.0,0.0,M,0.0,M,,*71
$GPGSA,A,3,01,02,03,04,05,06,07,08,09,10,11,12,1.0,1.0,1.0*30
$GPRMC,014804.932,A,4740.295,N,12212.337,W,038.9,007.6,171119,000.0,W*68
$GPGGA,014805.932,4740.306,N,12212.335,W,1,12,1.0,0.0,M,0.0,M,,*79
$GPGSA,A,3,01,02,03,04,05,06,07,08,09,10,11,12,1.0,1.0,1.0*30
$GPRMC,014805.932,A,4740.306,N,12212.335,W,038.9,007.6,171119,000.0,W*60
$GPGGA,014806.932,4740.317,N,12212.334,W,1,12,1.0,0.0,M,0.0,M,,*7B
$GPGSA,A,3,01,02,03,04,05,06,07,08,09,10,11,12,1.0,1.0,1.0*30
$GPRMC,014806.932,A,4740.317,N,12212.334,W,038.9,007.6,171119,000.0,W*62
$GPGGA,014807.932,4740.328,N,12212.332,W,1,12,1.0,0.0,M,0.0,M,,*70
$GPGSA,A,3,01,02,03,04,05,06,07,08,09,10,11,12,1.0,1.0,1.0*30
$GPRMC,014807.932,A,4740.328,N,12212.332,W,038.9,007.6,171119,000.0,W*69
$GPGGA,014808.932,4740.338,N,12212.331,W,1,12,1.0,0.0,M,0.0,M,,*7D
$GPGSA,A,3,01,02,03,04,05,06,07,08,09,10,11,12,1.0,1.0,1.0*30
$GPRMC,014808.932,A,4740.338,N,12212.331,W,038.9,007.6,171119,000.0,W*64
$GPGGA,014809.932,4740.349,N,12212.329,W,1,12,1.0,0.0,M,0.0,M,,*73
$GPGSA,A,3,01,02,03,04,05,06,07,08,09,10,11,12,1.0,1.0,1.0*30
$GPRMC,014809.932,A,4740.349,N,12212.329,W,038.9,007.6,171119,000.0,W*6A
$GPGGA,014810.932,4740.360,N,12212.328,W,1,12,1.0,0.0,M,0.0,M,,*71
$GPGSA,A,3,01,02,03,04,05,06,07,08,09,10,11,12,1.0,1.0,1.0*30
$GPRMC,014810.932,A,4740.360,N,12212.328,W,038.9,350.9,171119,000.0,W*66
$GPGGA,014811.932,4740.371,N,12212.330,W,1,12,1.0,0.0,M,0.0,M,,*79
$GPGSA,A,3,01,02,03,04,05,06,07,08,09,10,11,12,1.0,1.0,1.0*30
$GPRMC,014811.932,A,4740.371,N,12212.330,W,038.9,350.9,171119,000.0,W*6E
$GPGGA,014812.932,4740.381,N,12212.331,W,1,12,1.0,0.0,M,0.0,M,,*74
$GPGSA,A,3,01,02,03,04,05,06,07,08,09,10,11,12,1.0,1.0,1.0*30
$GPRMC,014812.932,A,4740.381,N,12212.331,W,038.9,350.9,171119,000.0,W*63
$GPGGA,014813.932,4740.392,N,12212.333,W,1,12,1.0,0.0,M,0.0,M,,*75
$GPGSA,A,3,01,02,03,04,05,06,07,08,09,10,11,12,1.0,1.0,1.0*30
$GPRMC,014813.932,A,4740.392,N,12212.333,W,038.9,350.9,171119,000.0,W*62
$GPGGA,014814.932,4740.403,N,12212.335,W,1,12,1.0,0.0,M,0.0,M,,*7B
$GPGSA,A,3,01,02,03,04,05,06,07,08,09,10,11,12,1.0,1.0,1.0*30
$GPRMC,014814.932,A,4740.403,N,12212.335,W,038.9,336.8,171119,000.0,W*6D
$GPGGA,014815.932,4740.413,N,12212.339,W,1,12,1.0,0.0,M,0.0,M,,*77
$GPGSA,A,3,01,02,03,04,05,06,07,08,09,10,11,12,1.0,1.0,1.0*30
$GPRMC,014815.932,A,4740.413,N,12212.339,W,038.9,336.8,171119,000.0,W*61
$GPGGA,014816.932,4740.424,N,12212.344,W,1,12,1.0,0.0,M,0.0,M,,*7A
$GPGSA,A,3,01,02,03,04,05,06,07,08,09,10,11,12,1.0,1.0,1.0*30
$GPRMC,014816.932,A,4740.424,N,12212.344,W,038.9,336.8,171119,000.0,W*6C
$GPGGA,014817.932,4740.434,N,12212.348,W,1,12,1.0,0.0,M,0.0,M,,*76
$GPGSA,A,3,01,02,03,04,05,06,07,08,09,10,11,12,1.0,1.0,1.0*30
$GPRMC,014817.932,A,4740.434,N,12212.348,W,038.9,336.8,171119,000.0,W*60
$GPGGA,014818.932,4740.444,N,12212.353,W,1,12,1.0,0.0,M,0.0,M,,*74
$GPGSA,A,3,01,02,03,04,05,06,07,08,09,10,11,12,1.0,1.0,1.0*30
$GPRMC,014818.932,A,4740.444,N,12212.353,W,038.9,336.8,171119,000.0,W*62
$GPGGA,014819.932,4740.455,N,12212.357,W,1,12,1.0,0.0,M,0.0,M,,*71
$GPGSA,A,3,01,02,03,04,05,06,07,08,09,10,11,12,1.0,1.0,1.0*30
$GPRMC,014819.932,A,4740.455,N,12212.357,W,038.9,336.8,171119,000.0,W*67
$GPGGA,014820.932,4740.465,N,12212.362,W,1,12,1.0,0.0,M,0.0,M,,*7E
$GPGSA,A,3,01,02,03,04,05,06,07,08,09,10,11,12,1.0,1.0,1.0*30
$GPRMC,014820.932,A,4740.465,N,12212.362,W,038.9,336.8,171119,000.0,W*68
$GPGGA,014821.932,4740.475,N,12212.366,W,1,12,1.0,0.0,M,0.0,M,,*7A
$GPGSA,A,3,01,02,03,04,05,06,07,08,09,10,11,12,1.0,1.0,1.0*30
$GPRMC,014821.932,A,4740.475,N,12212.366,W,038.9,336.8,171119,000.0,W*6C
$GPGGA,014822.932,4740.486,N,12212.371,W,1,12,1.0,0.0,M,0.0,M,,*73
$GPGSA,A,3,01,02,03,04,05,06,07,08,09,10,11,12,1.0,1.0,1.0*30
$GPRMC,014822.932,A,4740.486,N,12212.371,W,038.9,336.8,171119,000.0,W*65
$GPGGA,014823.932,4740.496,N,12212.375,W,1,12,1.0,0.0,M,0.0,M,,*77
$GPGSA,A,3,01,02,03,04,05,06,07,08,09,10,11,12,1.0,1.0,1.0*30
$GPRMC,014823.932,A,4740.496,N,12212.375,W,038.9,336.8,171119,000.0,W*61
$GPGGA,014824.932,4740.506,N,12212.379,W,1,12,1.0,0.0,M,0.0,M,,*74
$GPGSA,A,3,01,02,03,04,05,06,07,08,09,10,11,12,1.0,1.0,1.0*30
$GPRMC,014824.932,A,4740.506,N,12212.379,W,038.9,336.8,171119,000.0,W*62
$GPGGA,014825.932,4740.517,N,12212.384,W,1,12,1.0,0.0,M,0.0,M,,*77
$GPGSA,A,3,01,02,03,04,05,06,07,08,09,10,11,12,1.0,1.0,1.0*30
$GPRMC,014825.932,A,4740.517,N,12212.384,W,038.9,336.8,171119,000.0,W*61
$GPGGA,014826.932,4740.527,N,12212.388,W,1,12,1.0,0.0,M,0.0,M,,*7B
$GPGSA,A,3,01,02,03,04,05,06,07,08,09,10,11,12,1.0,1.0,1.0*30
$GPRMC,014826.932,A,4740.527,N,12212.388,W,038.9,249.9,171119,000.0,W*65
$GPGGA,014827.932,4740.522,N,12212.402,W,1,12,1.0,0.0,M,0.0,M,,*7A
$GPGSA,A,3,01,02,03,04,05,06,07,08,09,10,11,12,1.0,1.0,1.0*30
$GPRMC,014827.932,A,4740.522,N,12212.402,W,038.9,249.9,171119,000.0,W*64
$GPGGA,014828.932,4740.517,N,12212.417,W,1,12,1.0,0.0,M,0.0,M,,*77
$GPGSA,A,3,01,02,03,04,05,06,07,08,09,10,11,12,1.0,1.0,1.0*30
$GPRMC,014828.932,A,4740.517,N,12212.417,W,038.9,249.9,171119,000.0,W*69
$GPGGA,014829.932,4740.512,N,12212.431,W,1,12,1.0,0.0,M,0.0,M,,*77
$GPGSA,A,3,01,02,03,04,05,06,07,08,09,10,11,12,1.0,1.0,1.0*30
$GPRMC,014829.932,A,4740.512,N,12212.431,W,038.9,249.9,171119,000.0,W*69
$GPGGA,014830.932,4740.507,N,12212.445,W,1,12,1.0,0.0,M,0.0,M,,*78
$GPGSA,A,3,01,02,03,04,05,06,07,08,09,10,11,12,1.0,1.0,1.0*30
$GPRMC,014830.932,A,4740.507,N,12212.445,W,038.9,306.0,171119,000.0,W*65
$GPGGA,014831.932,4740.515,N,12212.456,W,1,12,1.0,0.0,M,0.0,M,,*78
$GPGSA,A,3,01,02,03,04,05,06,07,08,09,10,11,12,1.0,1.0,1.0*30
$GPRMC,014831.932,A,4740.515,N,12212.456,W,038.9,306.0,171119,000.0,W*65
$GPGGA,014832.932,4740.522,N,12212.467,W,1,12,1.0,0.0,M,0.0,M,,*7D
$GPGSA,A,3,01,02,03,04,05,06,07,08,09,10,11,12,1.0,1.0,1.0*30
$GPRMC,014832.932,A,4740.522,N,12212.467,W,038.9,306.0,171119,000.0,W*60
$GPGGA,014833.932,4740.530,N,12212.478,W,1,12,1.0,0.0,M,0.0,M,,*71
$GPGSA,A,3,01,02,03,04,05,06,07,08,09,10,11,12,1.0,1.0,1.0*30
$GPRMC,014833.932,A,4740.530,N,12212.478,W,038.9,306.0,171119,000.0,W*6C
$GPGGA,014834.932,4740.538,N,12212.488,W,1,12,1.0,0.0,M,0.0,M,,*71
$GPGSA,A,3,01,02,03,04,05,06,07,08,09,10,11,12,1.0,1.0,1.0*30
$GPRMC,014834.932,A,4740.538,N,12212.488,W,038.9,306.0,171119,000.0,W*6C
$GPGGA,014835.932,4740.546,N,12212.499,W,1,12,1.0,0.0,M,0.0,M,,*79
$GPGSA,A,3,01,02,03,04,05,06,07,08,09,10,11,12,1.0,1.0,1.0*30
$GPRMC,014835.932,A,4740.546,N,12212.499,W,038.9,287.0,171119,000.0,W*6C
$GPGGA,014836.932,4740.551,N,12212.514,W,1,12,1.0,0.0,M,0.0,M,,*78
$GPGSA,A,3,01,02,03,04,05,06,07,08,09,10,11,12,1.0,1.0,1.0*30
$GPRMC,014836.932,A,4740.551,N,12212.514,W,038.9,287.0,171119,000.0,W*6D
$GPGGA,014837.932,4740.555,N,12212.529,W,1,12,1.0,0.0,M,0.0,M,,*73
$GPGSA,A,3,01,02,03,04,05,06,07,08,09,10,11,12,1.0,1.0,1.0*30
$GPRMC,014837.932,A,4740.555,N,12212.529,W,038.9,265.0,171119,000.0,W*6A
$GPGGA,014838.932,4740.554,N,12212.544,W,1,12,1.0,0.0,M,0.0,M,,*76
$GPGSA,A,3,01,02,03,04,05,06,07,08,09,10,11,12,1.0,1.0,1.0*30
$GPRMC,014838.932,A,4740.554,N,12212.544,W,038.9,265.0,171119,000.0,W*6F
$GPGGA,014839.932,4740.552,N,12212.560,W,1,12,1.0,0.0,M,0.0,M,,*77
$GPGSA,A,3,01,02,03,04,05,06,07,08,09,10,11,12,1.0,1.0,1.0*30
$GPRMC,014839.932,A,4740.552,N,12212.560,W,038.9,345.7,171119,000.0,W*6A
$GPGGA,014840.932,4740.563,N,12212.563,W,1,12,1.0,0.0,M,0.0,M,,*78
$GPGSA,A,3,01,02,03,04,05,06,07,08,09,10,11,12,1.0,1.0,1.0*30
$GPRMC,014840.932,A,4740.563,N,12212.563,W,038.9,345.7,171119,000.0,W*65
$GPGGA,014841.932,4740.574,N,12212.566,W,1,12,1.0,0.0,M,0.0,M,,*7A
$GPGSA,A,3,01,02,03,04,05,06,07,08,09,10,11,12,1.0,1.0,1.0*30
$GPRMC,014841.932,A,4740.574,N,12212.566,W,038.9,345.7,171119,000.0,W*67
$GPGGA,014842.932,4740.584,N,12212.569,W,1,12,1.0,0.0,M,0.0,M,,*79
$GPGSA,A,3,01,02,03,04,05,06,07,08,09,10,11,12,1.0,1.0,1.0*30
$GPRMC,014842.932,A,4740.584,N,12212.569,W,038.9,090.3,171119,000.0,W*6B
$GPGGA,014843.932,4740.584,N,12212.552,W,1,12,1.0,0.0,M,0.0,M,,*70
$GPGSA,A,3,01,02,03,04,05,06,07,08,09,10,11,12,1.0,1.0,1.0*30
$GPRMC,014843.932,A,4740.584,N,12212.552,W,038.9,090.3,171119,000.0,W*62
$GPGGA,014844.932,4740.584,N,12212.536,W,1,12,1.0,0.0,M,0.0,M,,*75
$GPGSA,A,3,01,02,03,04,05,06,07,08,09,10,11,12,1.0,1.0,1.0*30
$GPRMC,014844.932,A,4740.584,N,12212.536,W,038.9,090.3,171119,000.0,W*67
$GPGGA,014845.932,4740.584,N,12212.520,W,1,12,1.0,0.0,M,0.0,M,,*73
$GPGSA,A,3,01,02,03,04,05,06,07,08,09,10,11,12,1.0,1.0,1.0*30
$GPRMC,014845.932,A,4740.584,N,12212.520,W,038.9,090.3,171119,000.0,W*61
$GPGGA,014846.932,4740.584,N,12212.504,W,1,12,1.0,0.0,M,0.0,M,,*76
$GPGSA,A,3,01,02,03,04,05,06,07,08,09,10,11,12,1.0,1.0,1.0*30
$GPRMC,014846.932,A,4740.584,N,12212.504,W,038.9,078.2,171119,000.0,W*63
$GPGGA,014847.932,4740.587,N,12212.489,W,1,12,1.0,0.0,M,0.0,M,,*70
$GPGSA,A,3,01,02,03,04,05,06,07,08,09,10,11,12,1.0,1.0,1.0*30
$GPRMC,014847.932,A,4740.587,N,12212.489,W,038.9,078.2,171119,000.0,W*65
$GPGGA,014848.932,4740.590,N,12212.474,W,1,12,1.0,0.0,M,0.0,M,,*7B
$GPGSA,A,3,01,02,03,04,05,06,07,08,09,10,11,12,1.0,1.0,1.0*30
$GPRMC,014848.932,A,4740.590,N,12212.474,W,038.9,078.2,171119,000.0,W*6E
$GPGGA,014849.932,4740.593,N,12212.458,W,1,12,1.0,0.0,M,0.0,M,,*77
$GPGSA,A,3,01,02,03,04,05,06,07,08,09,10,11,12,1.0,1.0,1.0*30
$GPRMC,014849.932,A,4740.593,N,12212.458,W,038.9,078.2,171119,000.0,W*62
$GPGGA,014850.932,4740.597,N,12212.443,W,1,12,1.0,0.0,M,0.0,M,,*71
$GPGSA,A,3,01,02,03,04,05,06,07,08,09,10,11,12,1.0,1.0,1.0*30
$GPRMC,014850.932,A,4740.597,N,12212.443,W,038.9,078.2,171119,000.0,W*64
$GPGGA,014851.932,4740.600,N,12212.428,W,1,12,1.0,0.0,M,0.0,M,,*70
$GPGSA,A,3,01,02,03,04,05,06,07,08,09,10,11,12,1.0,1.0,1.0*30
$GPRMC,014851.932,A,4740.600,N,12212.428,W,038.9,078.2,171119,000.0,W*65
$GPGGA,014852.932,4740.603,N,12212.413,W,1,12,1.0,0.0,M,0.0,M,,*78
$GPGSA,A,3,01,02,03,04,05,06,07,08,09,10,11,12,1.0,1.0,1.0*30
$GPRMC,014852.932,A,4740.603,N,12212.413,W,038.9,078.2,171119,000.0,W*6D
$GPGGA,014853.932,4740.606,N,12212.397,W,1,12,1.0,0.0,M,0.0,M,,*77
$GPGSA,A,3,01,02,03,04,05,06,07,08,09,10,11,12,1.0,1.0,1.0*30
$GPRMC,014853.932,A,4740.606,N,12212.397,W,038.9,078.2,171119,000.0,W*62
$GPGGA,014854.932,4740.609,N,12212.382,W,1,12,1.0,0.0,M,0.0,M,,*7B
$GPGSA,A,3,01,02,03,04,05,06,07,08,09,10,11,12,1.0,1.0,1.0*30
$GPRMC,014854.932,A,4740.609,N,12212.382,W,038.9,078.2,171119,000.0,W*6E
$GPGGA,014855.932,4740.613,N,12212.367,W,1,12,1.0,0.0,M,0.0,M,,*7A
$GPGSA,A,3,01,02,03,04,05,06,07,08,09,10,11,12,1.0,1.0,1.0*30
$GPRMC,014855.932,A,4740.613,N,12212.367,W,038.9,078.2,171119,000.0,W*6F
$GPGGA,014856.932,4740.616,N,12212.351,W,1,12,1.0,0.0,M,0.0,M,,*79
$GPGSA,A,3,01,02,03,04,05,06,07,08,09,10,11,12,1.0,1.0,1.0*30
$GPRMC,014856.932,A,4740.616,N,12212.351,W,038.9,078.2,171119,000.0,W*6C
$GPGGA,014857.932,4740.619,N,12212.336,W,1,12,1.0,0.0,M,0.0,M,,*76
$GPGSA,A,3,01,02,03,04,05,06,07,08,09,10,11,12,1.0,1.0,1.0*30
$GPRMC,014857.932,A,4740.619,N,12212.336,W,038.9,078.2,171119,000.0,W*63
$GPGGA,014858.932,4740.622,N,12212.321,W,1,12,1.0,0.0,M,0.0,M,,*77
$GPGSA,A,3,01,02,03,04,05,06,07,08,09,10,11,12,1.0,1.0,1.0*30
$GPRMC,014858.932,A,4740.622,N,12212.321,W,038.9,075.8,171119,000.0,W*65
$GPGGA,014859.932,4740.626,N,12212.306,W,1,12,1.0,0.0,M,0.0,M,,*77
$GPGSA,A,3,01,02,03,04,05,06,07,08,09,10,11,12,1.0,1.0,1.0*30
$GPRMC,014859.932,A,4740.626,N,12212.306,W,038.9,075.8,171119,000.0,W*65
$GPGGA,014900.932,4740.630,N,12212.291,W,1,12,1.0,0.0,M,0.0,M,,*72
$GPGSA,A,3,01,02,03,04,05,06,07,08,09,10,11,12,1.0,1.0,1.0*30
$GPRMC,014900.932,A,4740.630,N,12212.291,W,038.9,075.8,171119,000.0,W*60
$GPGGA,014901.932,4740.633,N,12212.276,W,1,12,1.0,0.0,M,0.0,M,,*79
$GPGSA,A,3,01,02,03,04,05,06,07,08,09,10,11,12,1.0,1.0,1.0*30
$GPRMC,014901.932,A,4740.633,N,12212.276,W,038.9,075.8,171119,000.0,W*6B
$GPGGA,014902.932,4740.637,N,12212.261,W,1,12,1.0,0.0,M,0.0,M,,*78
$GPGSA,A,3,01,02,03,04,05,06,07,08,09,10,11,12,1.0,1.0,1.0*30
$GPRMC,014902.932,A,4740.637,N,12212.261,W,038.9,075.8,171119,000.0,W*6A
$GPGGA,014903.932,4740.641,N,12212.246,W,1,12,1.0,0.0,M,0.0,M,,*7D
$GPGSA,A,3,01,02,03,04,05,06,07,08,09,10,11,12,1.0,1.0,1.0*30
$GPRMC,014903.932,A,4740.641,N,12212.246,W,038.9,075.8,171119,000.0,W*6F
$GPGGA,014904.932,4740.645,N,12212.231,W,1,12,1.0,0.0,M,0.0,M,,*7E
$GPGSA,A,3,01,02,03,04,05,06,07,08,09,10,11,12,1.0,1.0,1.0*30
$GPRMC,014904.932,A,4740.645,N,12212.231,W,038.9,075.8,171119,000.0,W*6C
$GPGGA,014905.932,4740.649,N,12212.216,W,1,12,1.0,0.0,M,0.0,M,,*76
$GPGSA,A,3,01,02,03,04,05,06,07,08,09,10,11,12,1.0,1.0,1.0*30
$GPRMC,014905.932,A,4740.649,N,12212.216,W,038.9,075.8,171119,000.0,W*64
$GPGGA,014906.932,4740.652,N,12212.201,W,1,12,1.0,0.0,M,0.0,M,,*79
$GPGSA,A,3,01,02,03,04,05,06,07,08,09,10,11,12,1.0,1.0,1.0*30
$GPRMC,014906.932,A,4740.652,N,12212.201,W,038.9,075.8,171119,000.0,W*6B
$GPGGA,014907.932,4740.656,N,12212.186,W,1,12,1.0,0.0,M,0.0,M,,*70
$GPGSA,A,3,01,02,03,04,05,06,07,08,09,10,11,12,1.0,1.0,1.0*30
$GPRMC,014907.932,A,4740.656,N,12212.186,W,038.9,075.8,171119,000.0,W*62
$GPGGA,014908.932,4740.660,N,12212.171,W,1,12,1.0,0.0,M,0.0,M,,*72
$GPGSA,A,3,01,02,03,04,05,06,07,08,09,10,11,12,1.0,1.0,1.0*30
$GPRMC,014908.932,A,4740.660,N,12212.171,W,038.9,075.8,171119,000.0,W*60
$GPGGA,014909.932,4740.664,N,12212.155,W,1,12,1.0,0.0,M,0.0,M,,*71
$GPGSA,A,3,01,02,03,04,05,06,07,08,09,10,11,12,1.0,1.0,1.0*30
$GPRMC,014909.932,A,4740.664,N,12212.155,W,038.9,075.8,171119,000.0,W*63
$GPGGA,014910.932,4740.667,N,12212.140,W,1,12,1.0,0.0,M,0.0,M,,*7E
$GPGSA,A,3,01,02,03,04,05,06,07,08,09,10,11,12,1.0,1.0,1.0*30
$GPRMC,014910.932,A,4740.667,N,12212.140,W,038.9,075.8,171119,000.0,W*6C
$GPGGA,014911.932,4740.671,N,12212.125,W,1,12,1.0,0.0,M,0.0,M,,*7B
$GPGSA,A,3,01,02,03,04,05,06,07,08,09,10,11,12,1.0,1.0,1.0*30
$GPRMC,014911.932,A,4740.671,N,12212.125,W,038.9,075.8,171119,000.0,W*69
$GPGGA,014912.932,4740.675,N,12212.110,W,1,12,1.0,0.0,M,0.0,M,,*7A
$GPGSA,A,3,01,02,03,04,05,06,07,08,09,10,11,12,1.0,1.0,1.0*30
$GPRMC,014912.932,A,4740.675,N,12212.110,W,038.9,075.8,171119,000.0,W*68
$GPGGA,014913.932,4740.679,N,12212.095,W,1,12,1.0,0.0,M,0.0,M,,*7B
$GPGSA,A,3,01,02,03,04,05,06,07,08,09,10,11,12,1.0,1.0,1.0*30
$GPRMC,014913.932,A,4740.679,N,12212.095,W,038.9,075.8,171119,000.0,W*69
$GPGGA,014914.932,4740.683,N,12212.080,W,1,12,1.0,0.0,M,0.0,M,,*7D
$GPGSA,A,3,01,02,03,04,05,06,07,08,09,10,11,12,1.0,1.0,1.0*30
$GPRMC,014914.932,A,4740.683,N,12212.080,W,038.9,075.8,171119,000.0,W*6F
$GPGGA,014915.932,4740.686,N,12212.065,W,1,12,1.0,0.0,M,0.0,M,,*72
$GPGSA,A,3,01,02,03,04,05,06,07,08,09,10,11,12,1.0,1.0,1.0*30
$GPRMC,014915.932,A,4740.686,N,12212.065,W,038.9,075.8,171119,000.0,W*60
$GPGGA,014916.932,4740.690,N,12212.050,W,1,12,1.0,0.0,M,0.0,M,,*70
$GPGSA,A,3,01,02,03,04,05,06,07,08,09,10,11,12,1.0,1.0,1.0*30
$GPRMC,014916.932,A,4740.690,N,12212.050,W,038.9,074.1,171119,000.0,W*6A
$GPGGA,014917.932,4740.694,N,12212.036,W,1,12,1.0,0.0,M,0.0,M,,*75
$GPGSA,A,3,01,02,03,04,05,06,07,08,09,10,11,12,1.0,1.0,1.0*30
$GPRMC,014917.932,A,4740.694,N,12212.036,W,038.9,074.1,171119,000.0,W*6F
$GPGGA,014918.932,4740.698,N,12212.021,W,1,12,1.0,0.0,M,0.0,M,,*70
$GPGSA,A,3,01,02,03,04,05,06,07,08,09,10,11,12,1.0,1.0,1.0*30
$GPRMC,014918.932,A,4740.698,N,12212.021,W,038.9,074.1,171119,000.0,W*6A
$GPGGA,014919.932,4740.703,N,12212.006,W,1,12,1.0,0.0,M,0.0,M,,*77
$GPGSA,A,3,01,02,03,04,05,06,07,08,09,10,11,12,1.0,1.0,1.0*30
$GPRMC,014919.932,A,4740.703,N,12212.006,W,038.9,074.1,171119,000.0,W*6D
$GPGGA,014920.932,4740.707,N,12211.991,W,1,12,1.0,0.0,M,0.0,M,,*7D
$GPGSA,A,3,01,02,03,04,05,06,07,08,09,10,11,12,1.0,1.0,1.0*30
$GPRMC,014920.932,A,4740.707,N,12211.991,W,038.9,074.1,171119,000.0,W*67
$GPGGA,014921.932,4740.711,N,12211.977,W,1,12,1.0,0.0,M,0.0,M,,*73
$GPGSA,A,3,01,02,03,04,05,06,07,08,09,10,11,12,1.0,1.0,1.0*30
$GPRMC,014921.932,A,4740.711,N,12211.977,W,038.9,074.1,171119,000.0,W*69
$GPGGA,014922.932,4740.715,N,12211.962,W,1,12,1.0,0.0,M,0.0,M,,*70
$GPGSA,A,3,01,02,03,04,05,06,07,08,09,10,11,12,1.0,1.0,1.0*30
$GPRMC,014922.932,A,4740.715,N,12211.962,W,038.9,074.1,171119,000.0,W*6A
$GPGGA,014923.932,4740.719,N,12211.947,W,1,12,1.0,0.0,M,0.0,M,,*7A
$GPGSA,A,3,01,02,03,04,05,06,07,08,09,10,11,12,1.0,1.0,1.0*30
$GPRMC,014923.932,A,4740.719,N,12211.947,W,038.9,074.1,171119,000.0,W*60
$GPGGA,014924.932,4740.724,N,12211.932,W,1,12,1.0,0.0,M,0.0,M,,*71
$GPGSA,A,3,01,02,03,04,05,06,07,08,09,10,11,12,1.0,1.0,1.0*30
$GPRMC,014924.932,A,4740.724,N,12211.932,W,038.9,074.1,171119,000.0,W*6B
$GPGGA,014925.932,4740.728,N,12211.917,W,1,12,1.0,0.0,M,0.0,M,,*7B
$GPGSA,A,3,01,02,03,04,05,06,07,08,09,10,11,12,1.0,1.0,1.0*30
$GPRMC,014925.932,A,4740.728,N,12211.917,W,038.9,074.1,171119,000.0,W*61
$GPGGA,014926.932,4740.732,N,12211.903,W,1,12,1.0,0.0,M,0.0,M,,*76
$GPGSA,A,3,01,02,03,04,05,06,07,08,09,10,11,12,1.0,1.0,1.0*30
$GPRMC,014926.932,A,4740.732,N,12211.903,W,038.9,074.1,171119,000.0,W*6C
$GPGGA,014927.932,4740.736,N,12211.888,W,1,12,1.0,0.0,M,0.0,M,,*71
$GPGSA,A,3,01,02,03,04,05,06,07,08,09,10,11,12,1.0,1.0,1.0*30
$GPRMC,014927.932,A,4740.736,N,12211.888,W,038.9,074.1,171119,000.0,W*6B
$GPGGA,014928.932,4740.740,N,12211.873,W,1,12,1.0,0.0,M,0.0,M,,*7B
$GPGSA,A,3,01,02,03,04,05,06,07,08,09,10,11,12,1.0,1.0,1.0*30
$GPRMC,014928.932,A,4740.740,N,12211.873,W,038.9,074.1,171119,000.0,W*61
$GPGGA,014929.932,4740.745,N,12211.858,W,1,12,1.0,0.0,M,0.0,M,,*76
$GPGSA,A,3,01,02,03,04,05,06,07,08,09,10,11,12,1.0,1.0,1.0*30
$GPRMC,014929.932,A,4740.745,N,12211.858,W,038.9,074.1,171119,000.0,W*6C
$GPGGA,014930.932,4740.749,N,12211.844,W,1,12,1.0,0.0,M,0.0,M,,*7F
$GPGSA,A,3,01,02,03,04,05,06,07,08,09,10,11,12,1.0,1.0,1.0*30
$GPRMC,014930.932,A,4740.749,N,12211.844,W,038.9,074.1,171119,000.0,W*65
$GPGGA,014931.932,4740.753,N,12211.829,W,1,12,1.0,0.0,M,0.0,M,,*7E
$GPGSA,A,3,01,02,03,04,05,06,07,08,09,10,11,12,1.0,1.0,1.0*30
$GPRMC,014931.932,A,4740.753,N,12211.829,W,038.9,074.1,171119,000.0,W*64
$GPGGA,014932.932,4740.757,N,12211.814,W,1,12,1.0,0.0,M,0.0,M,,*77
$GPGSA,A,3,01,02,03,04,05,06,07,08,09,10,11,12,1.0,1.0,1.0*30
$GPRMC,014932.932,A,4740.757,N,12211.814,W,038.9,089.2,171119,000.0,W*6C
$GPGGA,014933.932,4740.757,N,12211.798,W,1,12,1.0,0.0,M,0.0,M,,*7D
$GPGSA,A,3,01,02,03,04,05,06,07,08,09,10,11,12,1.0,1.0,1.0*30
$GPRMC,014933.932,A,4740.757,N,12211.798,W,038.9,089.2,171119,000.0,W*66
$GPGGA,014934.932,4740.758,N,12211.782,W,1,12,1.0,0.0,M,0.0,M,,*7E
$GPGSA,A,3,01,02,03,04,05,06,07,08,09,10,11,12,1.0,1.0,1.0*30
$GPRMC,014934.932,A,4740.758,N,12211.782,W,038.9,089.2,171119,000.0,W*65
$GPGGA,014935.932,4740.758,N,12211.766,W,1,12,1.0,0.0,M,0.0,M,,*75
$GPGSA,A,3,01,02,03,04,05,06,07,08,09,10,11,12,1.0,1.0,1.0*30
$GPRMC,014935.932,A,4740.758,N,12211.766,W,038.9,089.2,171119,000.0,W*6E
$GPGGA,014936.932,4740.758,N,12211.750,W,1,12,1.0,0.0,M,0.0,M,,*73
$GPGSA,A,3,01,02,03,04,05,06,07,08,09,10,11,12,1.0,1.0,1.0*30
$GPRMC,014936.932,A,4740.758,N,12211.750,W,038.9,089.2,171119,000.0,W*68
$GPGGA,014937.932,4740.758,N,12211.734,W,1,12,1.0,0.0,M,0.0,M,,*70
$GPGSA,A,3,01,02,03,04,05,06,07,08,09,10,11,12,1.0,1.0,1.0*30
$GPRMC,014937.932,A,4740.758,N,12211.734,W,038.9,089.2,171119,000.0,W*6B
$GPGGA,014938.932,4740.758,N,12211.718,W,1,12,1.0,0.0,M,0.0,M,,*71
$GPGSA,A,3,01,02,03,04,05,06,07,08,09,10,11,12,1.0,1.0,1.0*30
$GPRMC,014938.932,A,4740.758,N,12211.718,W,038.9,089.2,171119,000.0,W*6A
$GPGGA,014939.932,4740.759,N,12211.702,W,1,12,1.0,0.0,M,0.0,M,,*7A
$GPGSA,A,3,01,02,03,04,05,06,07,08,09,10,11,12,1.0,1.0,1.0*30
$GPRMC,014939.932,A,4740.759,N,12211.702,W,038.9,089.2,171119,000.0,W*61
$GPGGA,014940.932,4740.759,N,12211.686,W,1,12,1.0,0.0,M,0.0,M,,*79
$GPGSA,A,3,01,02,03,04,05,06,07,08,09,10,11,12,1.0,1.0,1.0*30
$GPRMC,014940.932,A,4740.759,N,12211.686,W,038.9,089.2,171119,000.0,W*62
$GPGGA,014941.932,4740.759,N,12211.670,W,1,12,1.0,0.0,M,0.0,M,,*71
$GPGSA,A,3,01,02,03,04,05,06,07,08,09,10,11,12,1.0,1.0,1.0*30
$GPRMC,014941.932,A,4740.759,N,12211.670,W,038.9,089.2,171119,000.0,W*6A
$GPGGA,014942.932,4740.759,N,12211.654,W,1,12,1.0,0.0,M,0.0,M,,*74
$GPGSA,A,3,01,02,03,04,05,06,07,08,09,10,11,12,1.0,1.0,1.0*30
$GPRMC,014942.932,A,4740.759,N,12211.654,W,038.9,089.2,171119,000.0,W*6F
$GPGGA,014943.932,4740.760,N,12211.638,W,1,12,1.0,0.0,M,0.0,M,,*75
$GPGSA,A,3,01,02,03,04,05,06,07,08,09,10,11,12,1.0,1.0,1.0*30
$GPRMC,014943.932,A,4740.760,N,12211.638,W,038.9,089.2,171119,000.0,W*6E
$GPGGA,014944.932,4740.760,N,12211.622,W,1,12,1.0,0.0,M,0.0,M,,*79
$GPGSA,A,3,01,02,03,04,05,06,07,08,09,10,11,12,1.0,1.0,1.0*30
$GPRMC,014944.932,A,4740.760,N,12211.622,W,038.9,089.2,171119,000.0,W*62
$GPGGA,014945.932,4740.760,N,12211.606,W,1,12,1.0,0.0,M,0.0,M,,*7E
$GPGSA,A,3,01,02,03,04,05,06,07,08,09,10,11,12,1.0,1.0,1.0*30
$GPRMC,014945.932,A,4740.760,N,12211.606,W,038.9,089.2,171119,000.0,W*65
$GPGGA,014946.932,4740.760,N,12211.590,W,1,12,1.0,0.0,M,0.0,M,,*71
$GPGSA,A,3,01,02,03,04,05,06,07,08,09,10,11,12,1.0,1.0,1.0*30
$GPRMC,014946.932,A,4740.760,N,12211.590,W,038.9,089.2,171119,000.0,W*6A
$GPGGA,014947.932,4740.760,N,12211.574,W,1,12,1.0,0.0,M,0.0,M,,*7A
$GPGSA,A,3,01,02,03,04,05,06,07,08,09,10,11,12,1.0,1.0,1.0*30
$GPRMC,014947.932,A,4740.760,N,12211.574,W,038.9,089.2,171119,000.0,W*61
$GPGGA,014948.932,4740.761,N,12211.558,W,1,12,1.0,0.0,M,0.0,M,,*7A
$GPGSA,A,3,01,02,03,04,05,06,07,08,09,10,11,12,1.0,1.0,1.0*30
$GPRMC,014948.932,A,4740.761,N,12211.558,W,038.9,089.2,171119,000.0,W*61
$GPGGA,014949.932,4740.761,N,12211.542,W,1,12,1.0,0.0,M,0.0,M,,*70
$GPGSA,A,3,01,02,03,04,05,06,07,08,09,10,11,12,1.0,1.0,1.0*30
$GPRMC,014949.932,A,4740.761,N,12211.542,W,038.9,089.2,171119,000.0,W*6B
$GPGGA,014950.932,4740.761,N,12211.526,W,1,12,1.0,0.0,M,0.0,M,,*7A
$GPGSA,A,3,01,02,03,04,05,06,07,08,09,10,11,12,1.0,1.0,1.0*30
$GPRMC,014950.932,A,4740.761,N,12211.526,W,038.9,089.2,171119,000.0,W*61
$GPGGA,014951.932,4740.761,N,12211.510,W,1,12,1.0,0.0,M,0.0,M,,*7E
$GPGSA,A,3,01,02,03,04,05,06,07,08,09,10,11,12,1.0,1.0,1.0*30
$GPRMC,014951.932,A,4740.761,N,12211.510,W,038.9,089.2,171119,000.0,W*65
$GPGGA,014952.932,4740.762,N,12211.494,W,1,12,1.0,0.0,M,0.0,M,,*73
$GPGSA,A,3,01,02,03,04,05,06,07,08,09,10,11,12,1.0,1.0,1.0*30
$GPRMC,014952.932,A,4740.762,N,12211.494,W,038.9,089.2,171119,000.0,W*68
$GPGGA,014953.932,4740.762,N,12211.477,W,1,12,1.0,0.0,M,0.0,M,,*7F
$GPGSA,A,3,01,02,03,04,05,06,07,08,09,10,11,12,1.0,1.0,1.0*30
$GPRMC,014953.932,A,4740.762,N,12211.477,W,038.9,089.2,171119,000.0,W*64
$GPGGA,014954.932,4740.762,N,12211.461,W,1,12,1.0,0.0,M,0.0,M,,*7F
$GPGSA,A,3,01,02,03,04,05,06,07,08,09,10,11,12,1.0,1.0,1.0*30
$GPRMC,014954.932,A,4740.762,N,12211.461,W,038.9,089.2,171119,000.0,W*64
$GPGGA,014955.932,4740.762,N,12211.445,W,1,12,1.0,0.0,M,0.0,M,,*78
$GPGSA,A,3,01,02,03,04,05,06,07,08,09,10,11,12,1.0,1.0,1.0*30
$GPRMC,014955.932,A,4740.762,N,12211.445,W,038.9,089.2,171119,000.0,W*63
$GPGGA,014956.932,4740.762,N,12211.429,W,1,12,1.0,0.0,M,0.0,M,,*71
$GPGSA,A,3,01,02,03,04,05,06,07,08,09,10,11,12,1.0,1.0,1.0*30
$GPRMC,014956.932,A,4740.762,N,12211.429,W,038.9,090.8,171119,000.0,W*68
$GPGGA,014957.932,4740.762,N,12211.413,W,1,12,1.0,0.0,M,0.0,M,,*79
$GPGSA,A,3,01,02,03,04,05,06,07,08,09,10,11,12,1.0,1.0,1.0*30
$GPRMC,014957.932,A,4740.762,N,12211.413,W,038.9,090.8,171119,000.0,W*60
$GPGGA,014958.932,4740.762,N,12211.397,W,1,12,1.0,0.0,M,0.0,M,,*7D
$GPGSA,A,3,01,02,03,04,05,06,07,08,09,10,11,12,1.0,1.0,1.0*30
$GPRMC,014958.932,A,4740.762,N,12211.397,W,038.9,090.8,171119,000.0,W*64
$GPGGA,014959.932,4740.762,N,12211.381,W,1,12,1.0,0.0,M,0.0,M,,*7B
$GPGSA,A,3,01,02,03,04,05,06,07,08,09,10,11,12,1.0,1.0,1.0*30
$GPRMC,014959.932,A,4740.762,N,12211.381,W,038.9,090.8,171119,000.0,W*62
$GPGGA,015000.932,4740.762,N,12211.365,W,1,12,1.0,0.0,M,0.0,M,,*75
$GPGSA,A,3,01,02,03,04,05,06,07,08,09,10,11,12,1.0,1.0,1.0*30
$GPRMC,015000.932,A,4740.762,N,12211.365,W,038.9,090.8,171119,000.0,W*6C
$GPGGA,015001.932,4740.761,N,12211.349,W,1,12,1.0,0.0,M,0.0,M,,*79
$GPGSA,A,3,01,02,03,04,05,06,07,08,09,10,11,12,1.0,1.0,1.0*30
$GPRMC,015001.932,A,4740.761,N,12211.349,W,038.9,090.8,171119,000.0,W*60
$GPGGA,015002.932,4740.761,N,12211.333,W,1,12,1.0,0.0,M,0.0,M,,*77
$GPGSA,A,3,01,02,03,04,05,06,07,08,09,10,11,12,1.0,1.0,1.0*30
$GPRMC,015002.932,A,4740.761,N,12211.333,W,038.9,090.8,171119,000.0,W*6E
$GPGGA,015003.932,4740.761,N,12211.317,W,1,12,1.0,0.0,M,0.0,M,,*70
$GPGSA,A,3,01,02,03,04,05,06,07,08,09,10,11,12,1.0,1.0,1.0*30
$GPRMC,015003.932,A,4740.761,N,12211.317,W,038.9,090.8,171119,000.0,W*69
$GPGGA,015004.932,4740.761,N,12211.301,W,1,12,1.0,0.0,M,0.0,M,,*70
$GPGSA,A,3,01,02,03,04,05,06,07,08,09,10,11,12,1.0,1.0,1.0*30
$GPRMC,015004.932,A,4740.761,N,12211.301,W,038.9,090.8,171119,000.0,W*69
$GPGGA,015005.932,4740.760,N,12211.285,W,1,12,1.0,0.0,M,0.0,M,,*7D
$GPGSA,A,3,01,02,03,04,05,06,07,08,09,10,11,12,1.0,1.0,1.0*30
$GPRMC,015005.932,A,4740.760,N,12211.285,W,038.9,090.8,171119,000.0,W*64
$GPGGA,015006.932,4740.760,N,12211.269,W,1,12,1.0,0.0,M,0.0,M,,*7C
$GPGSA,A,3,01,02,03,04,05,06,07,08,09,10,11,12,1.0,1.0,1.0*30
$GPRMC,015006.932,A,4740.760,N,12211.269,W,038.9,090.8,171119,000.0,W*65
$GPGGA,015007.932,4740.760,N,12211.253,W,1,12,1.0,0.0,M,0.0,M,,*74
$GPGSA,A,3,01,02,03,04,05,06,07,08,09,10,11,12,1.0,1.0,1.0*30
$GPRMC,015007.932,A,4740.760,N,12211.253,W,038.9,090.8,171119,000.0,W*6D
$GPGGA,015008.932,4740.760,N,12211.237,W,1,12,1.0,0.0,M,0.0,M,,*79
$GPGSA,A,3,01,02,03,04,05,06,07,08,09,10,11,12,1.0,1.0,1.0*30
$GPRMC,015008.932,A,4740.760,N,12211.237,W,038.9,090.8,171119,000.0,W*60
$GPGGA,015009.932,4740.760,N,12211.221,W,1,12,1.0,0.0,M,0.0,M,,*7F
$GPGSA,A,3,01,02,03,04,05,06,07,08,09,10,11,12,1.0,1.0,1.0*30
$GPRMC,015009.932,A,4740.760,N,12211.221,W,038.9,090.8,171119,000.0,W*66
$GPGGA,015010.932,4740.759,N,12211.205,W,1,12,1.0,0.0,M,0.0,M,,*7B
$GPGSA,A,3,01,02,03,04,05,06,07,08,09,10,11,12,1.0,1.0,1.0*30
$GPRMC,015010.932,A,4740.759,N,12211.205,W,038.9,090.8,171119,000.0,W*62
$GPGGA,015011.932,4740.759,N,12211.189,W,1,12,1.0,0.0,M,0.0,M,,*7D
$GPGSA,A,3,01,02,03,04,05,06,07,08,09,10,11,12,1.0,1.0,1.0*30
$GPRMC,015011.932,A,4740.759,N,12211.189,W,038.9,090.8,171119,000.0,W*64
$GPGGA,015012.932,4740.759,N,12211.173,W,1,12,1.0,0.0,M,0.0,M,,*7B
$GPGSA,A,3,01,02,03,04,05,06,07,08,09,10,11,12,1.0,1.0,1.0*30
$GPRMC,015012.932,A,4740.759,N,12211.173,W,038.9,090.8,171119,000.0,W*62
$GPGGA,015013.932,4740.759,N,12211.157,W,1,12,1.0,0.0,M,0.0,M,,*7C
$GPGSA,A,3,01,02,03,04,05,06,07,08,09,10,11,12,1.0,1.0,1.0*30
$GPRMC,015013.932,A,4740.759,N,12211.157,W,038.9,090.8,171119,000.0,W*65
$GPGGA,015014.932,4740.758,N,12211.141,W,1,12,1.0,0.0,M,0.0,M,,*7D
$GPGSA,A,3,01,02,03,04,05,06,07,08,09,10,11,12,1.0,1.0,1.0*30
$GPRMC,015014.932,A,4740.758,N,12211.141,W,038.9,090.8,171119,000.0,W*64
$GPGGA,015015.932,4740.758,N,12211.125,W,1,12,1.0,0.0,M,0.0,M,,*7E
$GPGSA,A,3,01,02,03,04,05,06,07,08,09,10,11,12,1.0,1.0,1.0*30
$GPRMC,015015.932,A,4740.758,N,12211.125,W,038.9,090.8,171119,000.0,W*67
$GPGGA,015016.932,4740.758,N,12211.109,W,1,12,1.0,0.0,M,0.0,M,,*73
$GPGSA,A,3,01,02,03,04,05,06,07,08,09,10,11,12,1.0,1.0,1.0*30
$GPRMC,015016.932,A,4740.758,N,12211.109,W,038.9,090.8,171119,000.0,W*6A
$GPGGA,015017.932,4740.758,N,12211.093,W,1,12,1.0,0.0,M,0.0,M,,*70
$GPGSA,A,3,01,02,03,04,05,06,07,08,09,10,11,12,1.0,1.0,1.0*30
$GPRMC,015017.932,A,4740.758,N,12211.093,W,038.9,090.8,171119,000.0,W*69
$GPGGA,015018.932,4740.758,N,12211.077,W,1,12,1.0,0.0,M,0.0,M,,*75
$GPGSA,A,3,01,02,03,04,05,06,07,08,09,10,11,12,1.0,1.0,1.0*30
$GPRMC,015018.932,A,4740.758,N,12211.077,W,038.9,090.8,171119,000.0,W*6C
$GPGGA,015019.932,4740.757,N,12211.061,W,1,12,1.0,0.0,M,0.0,M,,*7C
$GPGSA,A,3,01,02,03,04,05,06,07,08,09,10,11,12,1.0,1.0,1.0*30
$GPRMC,015019.932,A,4740.757,N,12211.061,W,038.9,090.8,171119,000.0,W*65
$GPGGA,015020.932,4740.757,N,12211.045,W,1,12,1.0,0.0,M,0.0,M,,*70
$GPGSA,A,3,01,02,03,04,05,06,07,08,09,10,11,12,1.0,1.0,1.0*30
$GPRMC,015020.932,A,4740.757,N,12211.045,W,038.9,090.8,171119,000.0,W*69
$GPGGA,015021.932,4740.757,N,12211.029,W,1,12,1.0,0.0,M,0.0,M,,*7B
$GPGSA,A,3,01,02,03,04,05,06,07,08,09,10,11,12,1.0,1.0,1.0*30
$GPRMC,015021.932,A,4740.757,N,12211.029,W,038.9,090.8,171119,000.0,W*62
$GPGGA,015022.932,4740.757,N,12211.013,W,1,12,1.0,0.0,M,0.0,M,,*71
$GPGSA,A,3,01,02,03,04,05,06,07,08,09,10,11,12,1.0,1.0,1.0*30
$GPRMC,015022.932,A,4740.757,N,12211.013,W,038.9,090.8,171119,000.0,W*68
$GPGGA,015023.932,4740.756,N,12210.997,W,1,12,1.0,0.0,M,0.0,M,,*75
$GPGSA,A,3,01,02,03,04,05,06,07,08,09,10,11,12,1.0,1.0,1.0*30
$GPRMC,015023.932,A,4740.756,N,12210.997,W,038.9,090.8,171119,000.0,W*6C
$GPGGA,015024.932,4740.756,N,12210.981,W,1,12,1.0,0.0,M,0.0,M,,*75
$GPGSA,A,3,01,02,03,04,05,06,07,08,09,10,11,12,1.0,1.0,1.0*30
$GPRMC,015024.932,A,4740.756,N,12210.981,W,038.9,090.8,171119,000.0,W*6C
$GPGGA,015025.932,4740.756,N,12210.965,W,1,12,1.0,0.0,M,0.0,M,,*7E
$GPGSA,A,3,01,02,03,04,05,06,07,08,09,10,11,12,1.0,1.0,1.0*30
$GPRMC,015025.932,A,4740.756,N,12210.965,W,038.9,090.8,171119,000.0,W*67
$GPGGA,015026.932,4740.756,N,12210.949,W,1,12,1.0,0.0,M,0.0,M,,*73
$GPGSA,A,3,01,02,03,04,05,06,07,08,09,10,11,12,1.0,1.0,1.0*30
$GPRMC,015026.932,A,4740.756,N,12210.949,W,038.9,090.8,171119,000.0,W*6A
$GPGGA,015027.932,4740.756,N,12210.933,W,1,12,1.0,0.0,M,0.0,M,,*7F
$GPGSA,A,3,01,02,03,04,05,06,07,08,09,10,11,12,1.0,1.0,1.0*30
$GPRMC,015027.932,A,4740.756,N,12210.933,W,038.9,089.1,171119,000.0,W*67
$GPGGA,015028.932,4740.756,N,12210.917,W,1,12,1.0,0.0,M,0.0,M,,*76
$GPGSA,A,3,01,02,03,04,05,06,07,08,09,10,11,12,1.0,1.0,1.0*30
$GPRMC,015028.932,A,4740.756,N,12210.917,W,038.9,089.1,171119,000.0,W*6E
$GPGGA,015029.932,4740.756,N,12210.901,W,1,12,1.0,0.0,M,0.0,M,,*70
$GPGSA,A,3,01,02,03,04,05,06,07,08,09,10,11,12,1.0,1.0,1.0*30
$GPRMC,015029.932,A,4740.756,N,12210.901,W,038.9,089.1,171119,000.0,W*68
$GPGGA,015030.932,4740.756,N,12210.885,W,1,12,1.0,0.0,M,0.0,M,,*75
$GPGSA,A,3,01,02,03,04,05,06,07,08,09,10,11,12,1.0,1.0,1.0*30
$GPRMC,015030.932,A,4740.756,N,12210.885,W,038.9,089.1,171119,000.0,W*6D
$GPGGA,015031.932,4740.757,N,12210.869,W,1,12,1.0,0.0,M,0.0,M,,*77
$GPGSA,A,3,01,02,03,04,05,06,07,08,09,10,11,12,1.0,1.0,1.0*30
$GPRMC,015031.932,A,4740.757,N,12210.869,W,038.9,089.1,171119,000.0,W*6F
$GPGGA,015032.932,4740.757,N,12210.852,W,1,12,1.0,0.0,M,0.0,M,,*7C
$GPGSA,A,3,01,02,03,04,05,06,07,08,09,10,11,12,1.0,1.0,1.0*30
$GPRMC,015032.932,A,4740.757,N,12210.852,W,038.9,089.1,171119,000.0,W*64
$GPGGA,015033.932,4740.757,N,12210.836,W,1,12,1.0,0.0,M,0.0,M,,*7F
$GPGSA,A,3,01,02,03,04,05,06,07,08,09,10,11,12,1.0,1.0,1.0*30
$GPRMC,015033.932,A,4740.757,N,12210.836,W,038.9,089.1,171119,000.0,W*67
$GPGGA,015034.932,4740.757,N,12210.820,W,1,12,1.0,0.0,M,0.0,M,,*7F
$GPGSA,A,3,01,02,03,04,05,06,07,08,09,10,11,12,1.0,1.0,1.0*30
$GPRMC,015034.932,A,4740.757,N,12210.820,W,038.9,089.1,171119,000.0,W*67
$GPGGA,015035.932,4740.758,N,12210.804,W,1,12,1.0,0.0,M,0.0,M,,*77
$GPGSA,A,3,01,02,03,04,05,06,07,08,09,10,11,12,1.0,1.0,1.0*30
$GPRMC,015035.932,A,4740.758,N,12210.804,W,038.9,089.1,171119,000.0,W*6F
$GPGGA,015036.932,4740.758,N,12210.788,W,1,12,1.0,0.0,M,0.0,M,,*7F
$GPGSA,A,3,01,02,03,04,05,06,07,08,09,10,11,12,1.0,1.0,1.0*30
$GPRMC,015036.932,A,4740.758,N,12210.788,W,038.9,089.1,171119,000.0,W*67
$GPGGA,015037.932,4740.758,N,12210.772,W,1,12,1.0,0.0,M,0.0,M,,*7B
$GPGSA,A,3,01,02,03,04,05,06,07,08,09,10,11,12,1.0,1.0,1.0*30
$GPRMC,015037.932,A,4740.758,N,12210.772,W,038.9,089.1,171119,000.0,W*63
$GPGGA,015038.932,4740.758,N,12210.756,W,1,12,1.0,0.0,M,0.0,M,,*72
$GPGSA,A,3,01,02,03,04,05,06,07,08,09,10,11,12,1.0,1.0,1.0*30
$GPRMC,015038.932,A,4740.758,N,12210.756,W,038.9,089.1,171119,000.0,W*6A
$GPGGA,015039.932,4740.759,N,12210.740,W,1,12,1.0,0.0,M,0.0,M,,*75
$GPGSA,A,3,01,02,03,04,05,06,07,08,09,10,11,12,1.0,1.0,1.0*30
$GPRMC,015039.932,A,4740.759,N,12210.740,W,038.9,089.1,171119,000.0,W*6D
$GPGGA,015040.932,4740.759,N,12210.724,W,1,12,1.0,0.0,M,0.0,M,,*79
$GPGSA,A,3,01,02,03,04,05,06,07,08,09,10,11,12,1.0,1.0,1.0*30
$GPRMC,015040.932,A,4740.759,N,12210.724,W,038.9,089.1,171119,000.0,W*61
$GPGGA,015041.932,4740.759,N,12210.708,W,1,12,1.0,0.0,M,0.0,M,,*76
$GPGSA,A,3,01,02,03,04,05,06,07,08,09,10,11,12,1.0,1.0,1.0*30
$GPRMC,015041.932,A,4740.759,N,12210.708,W,038.9,089.1,171119,000.0,W*6E
$GPGGA,015042.932,4740.759,N,12210.692,W,1,12,1.0,0.0,M,0.0,M,,*77
$GPGSA,A,3,01,02,03,04,05,06,07,08,09,10,11,12,1.0,1.0,1.0*30
$GPRMC,015042.932,A,4740.759,N,12210.692,W,038.9,089.1,171119,000.0,W*6F
$GPGGA,015043.932,4740.760,N,12210.676,W,1,12,1.0,0.0,M,0.0,M,,*76
$GPGSA,A,3,01,02,03,04,05,06,07,08,09,10,11,12,1.0,1.0,1.0*30
$GPRMC,015043.932,A,4740.760,N,12210.676,W,038.9,089.1,171119,000.0,W*6E
$GPGGA,015044.932,4740.760,N,12210.660,W,1,12,1.0,0.0,M,0.0,M,,*76
$GPGSA,A,3,01,02,03,04,05,06,07,08,09,10,11,12,1.0,1.0,1.0*30
$GPRMC,015044.932,A,4740.760,N,12210.660,W,038.9,089.1,171119,000.0,W*6E
$GPGGA,015045.932,4740.760,N,12210.644,W,1,12,1.0,0.0,M,0.0,M,,*71
$GPGSA,A,3,01,02,03,04,05,06,07,08,09,10,11,12,1.0,1.0,1.0*30
$GPRMC,015045.932,A,4740.760,N,12210.644,W,038.9,089.1,171119,000.0,W*69
$GPGGA,015046.932,4740.760,N,12210.628,W,1,12,1.0,0.0,M,0.0,M,,*78
$GPGSA,A,3,01,02,03,04,05,06,07,08,09,10,11,12,1.0,1.0,1.0*30
$GPRMC,015046.932,A,4740.760,N,12210.628,W,038.9,089.1,171119,000.0,W*60
$GPGGA,015047.932,4740.761,N,12210.612,W,1,12,1.0,0.0,M,0.0,M,,*71
$GPGSA,A,3,01,02,03,04,05,06,07,08,09,10,11,12,1.0,1.0,1.0*30
$GPRMC,015047.932,A,4740.761,N,12210.612,W,038.9,089.1,171119,000.0,W*69
$GPGGA,015048.932,4740.761,N,12210.596,W,1,12,1.0,0.0,M,0.0,M,,*71
$GPGSA,A,3,01,02,03,04,05,06,07,08,09,10,11,12,1.0,1.0,1.0*30
$GPRMC,015048.932,A,4740.761,N,12210.596,W,038.9,089.1,171119,000.0,W*69
$GPGGA,015049.932,4740.761,N,12210.580,W,1,12,1.0,0.0,M,0.0,M,,*77
$GPGSA,A,3,01,02,03,04,05,06,07,08,09,10,11,12,1.0,1.0,1.0*30
$GPRMC,015049.932,A,4740.761,N,12210.580,W,038.9,089.1,171119,000.0,W*6F
$GPGGA,015050.932,4740.761,N,12210.564,W,1,12,1.0,0.0,M,0.0,M,,*75
$GPGSA,A,3,01,02,03,04,05,06,07,08,09,10,11,12,1.0,1.0,1.0*30
$GPRMC,015050.932,A,4740.761,N,12210.564,W,038.9,089.1,171119,000.0,W*6D
$GPGGA,015051.932,4740.762,N,12210.548,W,1,12,1.0,0.0,M,0.0,M,,*79
$GPGSA,A,3,01,02,03,04,05,06,07,08,09,10,11,12,1.0,1.0,1.0*30
$GPRMC,015051.932,A,4740.762,N,12210.548,W,038.9,089.1,171119,000.0,W*61
$GPGGA,015052.932,4740.762,N,12210.532,W,1,12,1.0,0.0,M,0.0,M,,*77
$GPGSA,A,3,01,02,03,04,05,06,07,08,09,10,11,12,1.0,1.0,1.0*30
$GPRMC,015052.932,A,4740.762,N,12210.532,W,038.9,089.1,171119,000.0,W*6F
$GPGGA,015053.932,4740.762,N,12210.516,W,1,12,1.0,0.0,M,0.0,M,,*70
$GPGSA,A,3,01,02,03,04,05,06,07,08,09,10,11,12,1.0,1.0,1.0*30
$GPRMC,015053.932,A,4740.762,N,12210.516,W,038.9,089.1,171119,000.0,W*68
$GPGGA,015054.932,4740.762,N,12210.500,W,1,12,1.0,0.0,M,0.0,M,,*70
$GPGSA,A,3,01,02,03,04,05,06,07,08,09,10,11,12,1.0,1.0,1.0*30
$GPRMC,015054.932,A,4740.762,N,12210.500,W,038.9,089.1,171119,000.0,W*68
$GPGGA,015055.932,4740.763,N,12210.484,W,1,12,1.0,0.0,M,0.0,M,,*7D
$GPGSA,A,3,01,02,03,04,05,06,07,08,09,10,11,12,1.0,1.0,1.0*30
$GPRMC,015055.932,A,4740.763,N,12210.484,W,038.9,089.1,171119,000.0,W*65
$GPGGA,015056.932,4740.763,N,12210.468,W,1,12,1.0,0.0,M,0.0,M,,*7C
$GPGSA,A,3,01,02,03,04,05,06,07,08,09,10,11,12,1.0,1.0,1.0*30
$GPRMC,015056.932,A,4740.763,N,12210.468,W,038.9,089.1,171119,000.0,W*64
$GPGGA,015057.932,4740.763,N,12210.452,W,1,12,1.0,0.0,M,0.0,M,,*74
$GPGSA,A,3,01,02,03,04,05,06,07,08,09,10,11,12,1.0,1.0,1.0*30
$GPRMC,015057.932,A,4740.763,N,12210.452,W,038.9,089.1,171119,000.0,W*6C
$GPGGA,015058.932,4740.763,N,12210.436,W,1,12,1.0,0.0,M,0.0,M,,*79
$GPGSA,A,3,01,02,03,04,05,06,07,08,09,10,11,12,1.0,1.0,1.0*30
$GPRMC,015058.932,A,4740.763,N,12210.436,W,038.9,089.1,171119,000.0,W*61
$GPGGA,015059.932,4740.764,N,12210.420,W,1,12,1.0,0.0,M,0.0,M,,*78
$GPGSA,A,3,01,02,03,04,05,06,07,08,09,10,11,12,1.0,1.0,1.0*30
$GPRMC,015059.932,A,4740.764,N,12210.420,W,038.9,089.1,171119,000.0,W*60
$GPGGA,015100.932,4740.764,N,12210.404,W,1,12,1.0,0.0,M,0.0,M,,*73
$GPGSA,A,3,01,02,03,04,05,06,07,08,09,10,11,12,1.0,1.0,1.0*30
$GPRMC,015100.932,A,4740.764,N,12210.404,W,038.9,089.1,171119,000.0,W*6B
$GPGGA,015101.932,4740.764,N,12210.388,W,1,12,1.0,0.0,M,0.0,M,,*71
$GPGSA,A,3,01,02,03,04,05,06,07,08,09,10,11,12,1.0,1.0,1.0*30
$GPRMC,015101.932,A,4740.764,N,12210.388,W,038.9,089.1,171119,000.0,W*69
$GPGGA,015102.932,4740.764,N,12210.372,W,1,12,1.0,0.0,M,0.0,M,,*77
$GPGSA,A,3,01,02,03,04,05,06,07,08,09,10,11,12,1.0,1.0,1.0*30
$GPRMC,015102.932,A,4740.764,N,12210.372,W,038.9,089.1,171119,000.0,W*6F
$GPGGA,015103.932,4740.765,N,12210.356,W,1,12,1.0,0.0,M,0.0,M,,*71
$GPGSA,A,3,01,02,03,04,05,06,07,08,09,10,11,12,1.0,1.0,1.0*30
$GPRMC,015103.932,A,4740.765,N,12210.356,W,038.9,089.1,171119,000.0,W*69
$GPGGA,015104.932,4740.765,N,12210.340,W,1,12,1.0,0.0,M,0.0,M,,*71
$GPGSA,A,3,01,02,03,04,05,06,07,08,09,10,11,12,1.0,1.0,1.0*30
$GPRMC,015104.932,A,4740.765,N,12210.340,W,038.9,089.1,171119,000.0,W*69
$GPGGA,015105.932,4740.765,N,12210.324,W,1,12,1.0,0.0,M,0.0,M,,*72
$GPGSA,A,3,01,02,03,04,05,06,07,08,09,10,11,12,1.0,1.0,1.0*30
$GPRMC,015105.932,A,4740.765,N,12210.324,W,038.9,089.1,171119,000.0,W*6A
$GPGGA,015106.932,4740.765,N,12210.308,W,1,12,1.0,0.0,M,0.0,M,,*7F
$GPGSA,A,3,01,02,03,04,05,06,07,08,09,10,11,12,1.0,1.0,1.0*30
$GPRMC,015106.932,A,4740.765,N,12210.308,W,038.9,089.1,171119,000.0,W*67
$GPGGA,015107.932,4740.766,N,12210.292,W,1,12,1.0,0.0,M,0.0,M,,*7F
$GPGSA,A,3,01,02,03,04,05,06,07,08,09,10,11,12,1.0,1.0,1.0*30
$GPRMC,015107.932,A,4740.766,N,12210.292,W,038.9,089.1,171119,000.0,W*67
$GPGGA,015108.932,4740.766,N,12210.276,W,1,12,1.0,0.0,M,0.0,M,,*7A
$GPGSA,A,3,01,02,03,04,05,06,07,08,09,10,11,12,1.0,1.0,1.0*30
$GPRMC,015108.932,A,4740.766,N,12210.276,W,038.9,089.1,171119,000.0,W*62
$GPGGA,015109.932,4740.766,N,12210.260,W,1,12,1.0,0.0,M,0.0,M,,*7C
$GPGSA,A,3,01,02,03,04,05,06,07,08,09,10,11,12,1.0,1.0,1.0*30
$GPRMC,015109.932,A,4740.766,N,12210.260,W,038.9,089.1,171119,000.0,W*64
$GPGGA,015110.932,4740.766,N,12210.244,W,1,12,1.0,0.0,M,0.0,M,,*72
$GPGSA,A,3,01,02,03,04,05,06,07,08,09,10,11,12,1.0,1.0,1.0*30
$GPRMC,015110.932,A,4740.766,N,12210.244,W,038.9,089.1,171119,000.0,W*6A
$GPGGA,015111.932,4740.767,N,12210.228,W,1,12,1.0,0.0,M,0.0,M,,*78
$GPGSA,A,3,01,02,03,04,05,06,07,08,09,10,11,12,1.0,1.0,1.0*30
$GPRMC,015111.932,A,4740.767,N,12210.228,W,038.9,089.1,171119,000.0,W*60
$GPGGA,015112.932,4740.767,N,12210.212,W,1,12,1.0,0.0,M,0.0,M,,*72
$GPGSA,A,3,01,02,03,04,05,06,07,08,09,10,11,12,1.0,1.0,1.0*30
$GPRMC,015112.932,A,4740.767,N,12210.212,W,038.9,089.1,171119,000.0,W*6A
$GPGGA,015113.932,4740.767,N,12210.195,W,1,12,1.0,0.0,M,0.0,M,,*7F
$GPGSA,A,3,01,02,03,04,05,06,07,08,09,10,11,12,1.0,1.0,1.0*30
$GPRMC,015113.932,A,4740.767,N,12210.195,W,038.9,089.1,171119,000.0,W*67
$GPGGA,015114.932,4740.767,N,12210.179,W,1,12,1.0,0.0,M,0.0,M,,*7A
$GPGSA,A,3,01,02,03,04,05,06,07,08,09,10,11,12,1.0,1.0,1.0*30
$GPRMC,015114.932,A,4740.767,N,12210.179,W,038.9,089.1,171119,000.0,W*62
$GPGGA,015115.932,4740.768,N,12210.163,W,1,12,1.0,0.0,M,0.0,M,,*7F
$GPGSA,A,3,01,02,03,04,05,06,07,08,09,10,11,12,1.0,1.0,1.0*30
$GPRMC,015115.932,A,4740.768,N,12210.163,W,038.9,179.4,171119,000.0,W*6C
$GPGGA,015116.932,4740.757,N,12210.163,W,1,12,1.0,0.0,M,0.0,M,,*70
$GPGSA,A,3,01,02,03,04,05,06,07,08,09,10,11,12,1.0,1.0,1.0*30
$GPRMC,015116.932,A,4740.757,N,12210.163,W,038.9,179.4,171119,000.0,W*63
$GPGGA,015117.932,4740.746,N,12210.163,W,1,12,1.0,0.0,M,0.0,M,,*71
$GPGSA,A,3,01,02,03,04,05,06,07,08,09,10,11,12,1.0,1.0,1.0*30
$GPRMC,015117.932,A,4740.746,N,12210.163,W,038.9,179.4,171119,000.0,W*62
$GPGGA,015118.932,4740.735,N,12210.163,W,1,12,1.0,0.0,M,0.0,M,,*7A
$GPGSA,A,3,01,02,03,04,05,06,07,08,09,10,11,12,1.0,1.0,1.0*30
$GPRMC,015118.932,A,4740.735,N,12210.163,W,038.9,179.4,171119,000.0,W*69
$GPGGA,015119.932,4740.724,N,12210.163,W,1,12,1.0,0.0,M,0.0,M,,*7B
$GPGSA,A,3,01,02,03,04,05,06,07,08,09,10,11,12,1.0,1.0,1.0*30
$GPRMC,015119.932,A,4740.724,N,12210.163,W,038.9,179.4,171119,000.0,W*68
$GPGGA,015120.932,4740.714,N,12210.163,W,1,12,1.0,0.0,M,0.0,M,,*72
$GPGSA,A,3,01,02,03,04,05,06,07,08,09,10,11,12,1.0,1.0,1.0*30
$GPRMC,015120.932,A,4740.714,N,12210.163,W,038.9,179.4,171119,000.0,W*61
$GPGGA,015121.932,4740.703,N,12210.163,W,1,12,1.0,0.0,M,0.0,M,,*75
$GPGSA,A,3,01,02,03,04,05,06,07,08,09,10,11,12,1.0,1.0,1.0*30
$GPRMC,015121.932,A,4740.703,N,12210.163,W,038.9,179.4,171119,000.0,W*66
$GPGGA,015122.932,4740.692,N,12210.163,W,1,12,1.0,0.0,M,0.0,M,,*7F
$GPGSA,A,3,01,02,03,04,05,06,07,08,09,10,11,12,1.0,1.0,1.0*30
$GPRMC,015122.932,A,4740.692,N,12210.163,W,038.9,179.4,171119,000.0,W*6C
$GPGGA,015123.932,4740.681,N,12210.162,W,1,12,1.0,0.0,M,0.0,M,,*7D
$GPGSA,A,3,01,02,03,04,05,06,07,08,09,10,11,12,1.0,1.0,1.0*30
$GPRMC,015123.932,A,4740.681,N,12210.162,W,038.9,179.4,171119,000.0,W*6E
$GPGGA,015124.932,4740.670,N,12210.162,W,1,12,1.0,0.0,M,0.0,M,,*74
$GPGSA,A,3,01,02,03,04,05,06,07,08,09,10,11,12,1.0,1.0,1.0*30
$GPRMC,015124.932,A,4740.670,N,12210.162,W,038.9,179.4,171119,000.0,W*67
$GPGGA,015125.932,4740.660,N,12210.162,W,1,12,1.0,0.0,M,0.0,M,,*74
$GPGSA,A,3,01,02,03,04,05,06,07,08,09,10,11,12,1.0,1.0,1.0*30
$GPRMC,015125.932,A,4740.660,N,12210.162,W,038.9,179.4,171119,000.0,W*67
$GPGGA,015126.932,4740.649,N,12210.162,W,1,12,1.0,0.0,M,0.0,M,,*7C
$GPGSA,A,3,01,02,03,04,05,06,07,08,09,10,11,12,1.0,1.0,1.0*30
$GPRMC,015126.932,A,4740.649,N,12210.162,W,038.9,179.4,171119,000.0,W*6F
$GPGGA,015127.932,4740.638,N,12210.162,W,1,12,1.0,0.0,M,0.0,M,,*7B
$GPGSA,A,3,01,02,03,04,05,06,07,08,09,10,11,12,1.0,1.0,1.0*30
$GPRMC,015127.932,A,4740.638,N,12210.162,W,038.9,179.4,171119,000.0,W*68
$GPGGA,015128.932,4740.627,N,12210.162,W,1,12,1.0,0.0,M,0.0,M,,*7A
$GPGSA,A,3,01,02,03,04,05,06,07,08,09,10,11,12,1.0,1.0,1.0*30
$GPRMC,015128.932,A,4740.627,N,12210.162,W,038.9,179.4,171119,000.0,W*69
$GPGGA,015129.932,4740.617,N,12210.162,W,1,12,1.0,0.0,M,0.0,M,,*78
$GPGSA,A,3,01,02,03,04,05,06,07,08,09,10,11,12,1.0,1.0,1.0*30
$GPRMC,015129.932,A,4740.617,N,12210.162,W,038.9,179.4,171119,000.0,W*6B
$GPGGA,015130.932,4740.606,N,12210.162,W,1,12,1.0,0.0,M,0.0,M,,*70
$GPGSA,A,3,01,02,03,04,05,06,07,08,09,10,11,12,1.0,1.0,1.0*30
$GPRMC,015130.932,A,4740.606,N,12210.162,W,038.9,179.4,171119,000.0,W*63
$GPGGA,015131.932,4740.595,N,12210.161,W,1,12,1.0,0.0,M,0.0,M,,*7B
$GPGSA,A,3,01,02,03,04,05,06,07,08,09,10,11,12,1.0,1.0,1.0*30
$GPRMC,015131.932,A,4740.595,N,12210.161,W,038.9,179.4,171119,000.0,W*68
$GPGGA,015132.932,4740.584,N,12210.161,W,1,12,1.0,0.0,M,0.0,M,,*78
$GPGSA,A,3,01,02,03,04,05,06,07,08,09,10,11,12,1.0,1.0,1.0*30
$GPRMC,015132.932,A,4740.584,N,12210.161,W,038.9,179.4,171119,000.0,W*6B
$GPGGA,015133.932,4740.573,N,12210.161,W,1,12,1.0,0.0,M,0.0,M,,*71
$GPGSA,A,3,01,02,03,04,05,06,07,08,09,10,11,12,1.0,1.0,1.0*30
$GPRMC,015133.932,A,4740.573,N,12210.161,W,038.9,179.4,171119,000.0,W*62
$GPGGA,015134.932,4740.563,N,12210.161,W,1,12,1.0,0.0,M,0.0,M,,*77
$GPGSA,A,3,01,02,03,04,05,06,07,08,09,10,11,12,1.0,1.0,1.0*30
$GPRMC,015134.932,A,4740.563,N,12210.161,W,038.9,179.4,171119,000.0,W*64
$GPGGA,015135.932,4740.552,N,12210.161,W,1,12,1.0,0.0,M,0.0,M,,*74
$GPGSA,A,3,01,02,03,04,05,06,07,08,09,10,11,12,1.0,1.0,1.0*30
$GPRMC,015135.932,A,4740.552,N,12210.161,W,038.9,179.4,171119,000.0,W*67
$GPGGA,015136.932,4740.541,N,12210.161,W,1,12,1.0,0.0,M,0.0,M,,*75
$GPGSA,A,3,01,02,03,04,05,06,07,08,09,10,11,12,1.0,1.0,1.0*30
$GPRMC,015136.932,A,4740.541,N,12210.161,W,038.9,179.4,171119,000.0,W*66
$GPGGA,015137.932,4740.530,N,12210.161,W,1,12,1.0,0.0,M,0.0,M,,*72
$GPGSA,A,3,01,02,03,04,05,06,07,08,09,10,11,12,1.0,1.0,1.0*30
$GPRMC,015137.932,A,4740.530,N,12210.161,W,038.9,179.4,171119,000.0,W*61
$GPGGA,015138.932,4740.519,N,12210.161,W,1,12,1.0,0.0,M,0.0,M,,*76
$GPGSA,A,3,01,02,03,04,05,06,07,08,09,10,11,12,1.0,1.0,1.0*30
$GPRMC,015138.932,A,4740.519,N,12210.161,W,038.9,270.1,171119,000.0,W*6A
$GPGGA,015139.932,4740.519,N,12210.177,W,1,12,1.0,0.0,M,0.0,M,,*70
$GPGSA,A,3,01,02,03,04,05,06,07,08,09,10,11,12,1.0,1.0,1.0*30
$GPRMC,015139.932,A,4740.519,N,12210.177,W,038.9,270.1,171119,000.0,W*6C
$GPGGA,015140.932,4740.519,N,12210.193,W,1,12,1.0,0.0,M,0.0,M,,*74
$GPGSA,A,3,01,02,03,04,05,06,07,08,09,10,11,12,1.0,1.0,1.0*30
$GPRMC,015140.932,A,4740.519,N,12210.193,W,038.9,270.1,171119,000.0,W*68
$GPGGA,015141.932,4740.520,N,12210.209,W,1,12,1.0,0.0,M,0.0,M,,*7F
$GPGSA,A,3,01,02,03,04,05,06,07,08,09,10,11,12,1.0,1.0,1.0*30
$GPRMC,015141.932,A,4740.520,N,12210.209,W,038.9,270.1,171119,000.0,W*63
$GPGGA,015142.932,4740.520,N,12210.225,W,1,12,1.0,0.0,M,0.0,M,,*72
$GPGSA,A,3,01,02,03,04,05,06,07,08,09,10,11,12,1.0,1.0,1.0*30
$GPRMC,015142.932,A,4740.520,N,12210.225,W,038.9,270.1,171119,000.0,W*6E
$GPGGA,015143.932,4740.520,N,12210.241,W,1,12,1.0,0.0,M,0.0,M,,*71
$GPGSA,A,3,01,02,03,04,05,06,07,08,09,10,11,12,1.0,1.0,1.0*30
$GPRMC,015143.932,A,4740.520,N,12210.241,W,038.9,270.1,171119,000.0,W*6D
$GPGGA,015144.932,4740.520,N,12210.257,W,1,12,1.0,0.0,M,0.0,M,,*71
$GPGSA,A,3,01,02,03,04,05,06,07,08,09,10,11,12,1.0,1.0,1.0*30
$GPRMC,015144.932,A,4740.520,N,12210.257,W,038.9,270.1,171119,000.0,W*6D
$GPGGA,015145.932,4740.520,N,12210.273,W,1,12,1.0,0.0,M,0.0,M,,*76
$GPGSA,A,3,01,02,03,04,05,06,07,08,09,10,11,12,1.0,1.0,1.0*30
$GPRMC,015145.932,A,4740.520,N,12210.273,W,038.9,270.1,171119,000.0,W*6A
$GPGGA,015146.932,4740.520,N,12210.289,W,1,12,1.0,0.0,M,0.0,M,,*70
$GPGSA,A,3,01,02,03,04,05,06,07,08,09,10,11,12,1.0,1.0,1.0*30
$GPRMC,015146.932,A,4740.520,N,12210.289,W,038.9,270.1,171119,000.0,W*6C
$GPGGA,015147.932,4740.520,N,12210.305,W,1,12,1.0,0.0,M,0.0,M,,*74
$GPGSA,A,3,01,02,03,04,05,06,07,08,09,10,11,12,1.0,1.0,1.0*30
$GPRMC,015147.932,A,4740.520,N,12210.305,W,038.9,270.1,171119,000.0,W*68
$GPGGA,015148.932,4740.520,N,12210.321,W,1,12,1.0,0.0,M,0.0,M,,*7D
$GPGSA,A,3,01,02,03,04,05,06,07,08,09,10,11,12,1.0,1.0,1.0*30
$GPRMC,015148.932,A,4740.520,N,12210.321,W,038.9,270.1,171119,000.0,W*61
$GPGGA,015149.932,4740.520,N,12210.337,W,1,12,1.0,0.0,M,0.0,M,,*7B
$GPGSA,A,3,01,02,03,04,05,06,07,08,09,10,11,12,1.0,1.0,1.0*30
$GPRMC,015149.932,A,4740.520,N,12210.337,W,038.9,270.1,171119,000.0,W*67
$GPGGA,015150.932,4740.520,N,12210.353,W,1,12,1.0,0.0,M,0.0,M,,*71
$GPGSA,A,3,01,02,03,04,05,06,07,08,09,10,11,12,1.0,1.0,1.0*30
$GPRMC,015150.932,A,4740.520,N,12210.353,W,038.9,270.1,171119,000.0,W*6D
$GPGGA,015151.932,4740.520,N,12210.369,W,1,12,1.0,0.0,M,0.0,M,,*79
$GPGSA,A,3,01,02,03,04,05,06,07,08,09,10,11,12,1.0,1.0,1.0*30
$GPRMC,015151.932,A,4740.520,N,12210.369,W,038.9,270.1,171119,000.0,W*65
$GPGGA,015152.932,4740.520,N,12210.385,W,1,12,1.0,0.0,M,0.0,M,,*78
$GPGSA,A,3,01,02,03,04,05,06,07,08,09,10,11,12,1.0,1.0,1.0*30
$GPRMC,015152.932,A,4740.520,N,12210.385,W,038.9,270.1,171119,000.0,W*64
$GPGGA,015153.932,4740.520,N,12210.401,W,1,12,1.0,0.0,M,0.0,M,,*72
$GPGSA,A,3,01,02,03,04,05,06,07,08,09,10,11,12,1.0,1.0,1.0*30
$GPRMC,015153.932,A,4740.520,N,12210.401,W,038.9,270.1,171119,000.0,W*6E
$GPGGA,015154.932,4740.520,N,12210.417,W,1,12,1.0,0.0,M,0.0,M,,*72
$GPGSA,A,3,01,02,03,04,05,06,07,08,09,10,11,12,1.0,1.0,1.0*30
$GPRMC,015154.932,A,4740.520,N,12210.417,W,038.9,270.1,171119,000.0,W*6E
$GPGGA,015155.932,4740.520,N,12210.433,W,1,12,1.0,0.0,M,0.0,M,,*75
$GPGSA,A,3,01,02,03,04,05,06,07,08,09,10,11,12,1.0,1.0,1.0*30
$GPRMC,015155.932,A,4740.520,N,12210.433,W,038.9,270.1,171119,000.0,W*69
$GPGGA,015156.932,4740.520,N,12210.449,W,1,12,1.0,0.0,M,0.0,M,,*7B
$GPGSA,A,3,01,02,03,04,05,06,07,08,09,10,11,12,1.0,1.0,1.0*30
$GPRMC,015156.932,A,4740.520,N,12210.449,W,038.9,270.1,171119,000.0,W*67
$GPGGA,015157.932,4740.520,N,12210.465,W,1,12,1.0,0.0,M,0.0,M,,*74
$GPGSA,A,3,01,02,03,04,05,06,07,08,09,10,11,12,1.0,1.0,1.0*30
$GPRMC,015157.932,A,4740.520,N,12210.465,W,038.9,270.1,171119,000.0,W*68
$GPGGA,015158.932,4740.520,N,12210.481,W,1,12,1.0,0.0,M,0.0,M,,*71
$GPGSA,A,3,01,02,03,04,05,06,07,08,09,10,11,12,1.0,1.0,1.0*30
$GPRMC,015158.932,A,4740.520,N,12210.481,W,038.9,270.1,171119,000.0,W*6D
$GPGGA,015159.932,4740.520,N,12210.497,W,1,12,1.0,0.0,M,0.0,M,,*77
$GPGSA,A,3,01,02,03,04,05,06,07,08,09,10,11,12,1.0,1.0,1.0*30
$GPRMC,015159.932,A,4740.520,N,12210.497,W,038.9,270.1,171119,000.0,W*6B
$GPGGA,015200.932,4740.520,N,12210.513,W,1,12,1.0,0.0,M,0.0,M,,*75
$GPGSA,A,3,01,02,03,04,05,06,07,08,09,10,11,12,1.0,1.0,1.0*30
$GPRMC,015200.932,A,4740.520,N,12210.513,W,038.9,270.1,171119,000.0,W*69
$GPGGA,015201.932,4740.520,N,12210.529,W,1,12,1.0,0.0,M,0.0,M,,*7D
$GPGSA,A,3,01,02,03,04,05,06,07,08,09,10,11,12,1.0,1.0,1.0*30
$GPRMC,015201.932,A,4740.520,N,12210.529,W,038.9,270.1,171119,000.0,W*61
$GPGGA,015202.932,4740.520,N,12210.545,W,1,12,1.0,0.0,M,0.0,M,,*74
$GPGSA,A,3,01,02,03,04,05,06,07,08,09,10,11,12,1.0,1.0,1.0*30
$GPRMC,015202.932,A,4740.520,N,12210.545,W,038.9,270.1,171119,000.0,W*68
$GPGGA,015203.932,4740.520,N,12210.561,W,1,12,1.0,0.0,M,0.0,M,,*73
$GPGSA,A,3,01,02,03,04,05,06,07,08,09,10,11,12,1.0,1.0,1.0*30
$GPRMC,015203.932,A,4740.520,N,12210.561,W,038.9,270.1,171119,000.0,W*6F
$GPGGA,015204.932,4740.520,N,12210.577,W,1,12,1.0,0.0,M,0.0,M,,*73
$GPGSA,A,3,01,02,03,04,05,06,07,08,09,10,11,12,1.0,1.0,1.0*30
$GPRMC,015204.932,A,4740.520,N,12210.577,W,038.9,270.1,171119,000.0,W*6F
$GPGGA,015205.932,4740.520,N,12210.593,W,1,12,1.0,0.0,M,0.0,M,,*78
$GPGSA,A,3,01,02,03,04,05,06,07,08,09,10,11,12,1.0,1.0,1.0*30
$GPRMC,015205.932,A,4740.520,N,12210.593,W,038.9,270.1,171119,000.0,W*64
$GPGGA,015206.932,4740.520,N,12210.609,W,1,12,1.0,0.0,M,0.0,M,,*7B
$GPGSA,A,3,01,02,03,04,05,06,07,08,09,10,11,12,1.0,1.0,1.0*30
$GPRMC,015206.932,A,4740.520,N,12210.609,W,038.9,270.1,171119,000.0,W*67
$GPGGA,015207.932,4740.521,N,12210.625,W,1,12,1.0,0.0,M,0.0,M,,*75
$GPGSA,A,3,01,02,03,04,05,06,07,08,09,10,11,12,1.0,1.0,1.0*30
$GPRMC,015207.932,A,4740.521,N,12210.625,W,038.9,270.1,171119,000.0,W*69
$GPGGA,015208.932,4740.521,N,12210.641,W,1,12,1.0,0.0,M,0.0,M,,*78
$GPGSA,A,3,01,02,03,04,05,06,07,08,09,10,11,12,1.0,1.0,1.0*30
$GPRMC,015208.932,A,4740.521,N,12210.641,W,038.9,270.1,171119,000.0,W*64
$GPGGA,015209.932,4740.521,N,12210.657,W,1,12,1.0,0.0,M,0.0,M,,*7E
$GPGSA,A,3,01,02,03,04,05,06,07,08,09,10,11,12,1.0,1.0,1.0*30
$GPRMC,015209.932,A,4740.521,N,12210.657,W,038.9,270.1,171119,000.0,W*62
$GPGGA,015210.932,4740.521,N,12210.674,W,1,12,1.0,0.0,M,0.0,M,,*77
$GPGSA,A,3,01,02,03,04,05,06,07,08,09,10,11,12,1.0,1.0,1.0*30
$GPRMC,015210.932,A,4740.521,N,12210.674,W,038.9,270.1,171119,000.0,W*6B
$GPGGA,015211.932,4740.521,N,12210.690,W,1,12,1.0,0.0,M,0.0,M,,*7C
$GPGSA,A,3,01,02,03,04,05,06,07,08,09,10,11,12,1.0,1.0,1.0*30
$GPRMC,015211.932,A,4740.521,N,12210.690,W,038.9,270.1,171119,000.0,W*60
$GPGGA,015212.932,4740.521,N,12210.706,W,1,12,1.0,0.0,M,0.0,M,,*71
$GPGSA,A,3,01,02,03,04,05,06,07,08,09,10,11,12,1.0,1.0,1.0*30
$GPRMC,015212.932,A,4740.521,N,12210.706,W,038.9,270.1,171119,000.0,W*6D
$GPGGA,015213.932,4740.521,N,12210.722,W,1,12,1.0,0.0,M,0.0,M,,*76
$GPGSA,A,3,01,02,03,04,05,06,07,08,09,10,11,12,1.0,1.0,1.0*30
$GPRMC,015213.932,A,4740.521,N,12210.722,W,038.9,270.1,171119,000.0,W*6A
$GPGGA,015214.932,4740.521,N,12210.738,W,1,12,1.0,0.0,M,0.0,M,,*7A
$GPGSA,A,3,01,02,03,04,05,06,07,08,09,10,11,12,1.0,1.0,1.0*30
$GPRMC,015214.932,A,4740.521,N,12210.738,W,038.9,270.1,171119,000.0,W*66
$GPGGA,015215.932,4740.521,N,12210.754,W,1,12,1.0,0.0,M,0.0,M,,*71
$GPGSA,A,3,01,02,03,04,05,06,07,08,09,10,11,12,1.0,1.0,1.0*30
$GPRMC,015215.932,A,4740.521,N,12210.754,W,038.9,270.1,171119,000.0,W*6D
$GPGGA,015216.932,4740.521,N,12210.770,W,1,12,1.0,0.0,M,0.0,M,,*74
$GPGSA,A,3,01,02,03,04,05,06,07,08,09,10,11,12,1.0,1.0,1.0*30
$GPRMC,015216.932,A,4740.521,N,12210.770,W,038.9,270.1,171119,000.0,W*68
$GPGGA,015217.932,4740.521,N,12210.786,W,1,12,1.0,0.0,M,0.0,M,,*7C
$GPGSA,A,3,01,02,03,04,05,06,07,08,09,10,11,12,1.0,1.0,1.0*30
$GPRMC,015217.932,A,4740.521,N,12210.786,W,038.9,270.1,171119,000.0,W*60
